{"type":"FeatureCollection","features":[{"type":"Feature","properties":{"OBJECTID":669,"PSINUM":"CDL01","SWFACID":" ","SITENAME":"CANAAN TOWN","LOCCONF":"L","DATE_FIRST":"1956","DATE_LAST":"1975","ACRES":1,"STATUS":"CLOSED","WQMONITORING":"N","GASCOLLECTION":"N","TOWNNAME":"CANAAN","LATITUDE":44.98421311,"LONGITUDE":-71.54286307},"geometry":{"type":"Point","coordinates":[-71.5428639919213,44.98422225084539]}},{"type":"Feature","properties":{"OBJECTID":670,"PSINUM":"CDL02","SWFACID":" ","SITENAME":"CANAAN TOWN","LOCCONF":"L","DATE_FIRST":"1930","DATE_LAST":"1956","ACRES":0.25,"STATUS":"CLOSED","WQMONITORING":"N","GASCOLLECTION":"N","TOWNNAME":"CANAAN","LATITUDE":44.98699085,"LONGITUDE":-71.54175248},"geometry":{"type":"Point","coordinates":[-71.54175340187246,44.98699999412592]}},{"type":"Feature","properties":{"OBJECTID":671,"PSINUM":"HML01","SWFACID":" ","SITENAME":"BARNEY, R.","LOCCONF":"L","DATE_FIRST":" ","DATE_LAST":"1950","ACRES":0.1,"STATUS":"CLOSED","WQMONITORING":"N","GASCOLLECTION":"N","TOWNNAME":"HIGHGATE","LATITUDE":44.93559869,"LONGITUDE":-73.04846448},"geometry":{"type":"Point","coordinates":[-73.0484659076293,44.93560776783704]}},{"type":"Feature","properties":{"OBJECTID":672,"PSINUM":"HML02","SWFACID":" ","SITENAME":"RAYMO","LOCCONF":"L","DATE_FIRST":"1950","DATE_LAST":"NU","ACRES":2,"STATUS":"CLOSED","WQMONITORING":"N","GASCOLLECTION":"N","TOWNNAME":"HIGHGATE","LATITUDE":44.93976523,"LONGITUDE":-73.05651951},"geometry":{"type":"Point","coordinates":[-73.05652093557343,44.939774307032835]}},{"type":"Feature","properties":{"OBJECTID":673,"PSINUM":"HML03","SWFACID":"FR280","SITENAME":"YOUNG/HIGHGATE LANDFILL","LOCCONF":"L","DATE_FIRST":"1962","DATE_LAST":"U","ACRES":17,"STATUS":"CLOSED","WQMONITORING":"N","GASCOLLECTION":"N","TOWNNAME":"HIGHGATE","LATITUDE":44.93670938,"LONGITUDE":-73.08929722},"geometry":{"type":"Point","coordinates":[-73.08929865196866,44.9367184635084]}},{"type":"Feature","properties":{"OBJECTID":674,"PSINUM":null,"SWFACID":"FR310","SITENAME":"HIGHGATE LANDFILL","LOCCONF":" ","DATE_FIRST":"1985","DATE_LAST":"1993","ACRES":0,"STATUS":"CLOSED","WQMONITORING":"Y","GASCOLLECTION":"N","TOWNNAME":"HIGHGATE","LATITUDE":44.93639999,"LONGITUDE":-73.05859999},"geometry":{"type":"Point","coordinates":[-73.05860142127618,44.93640907527638]}},{"type":"Feature","properties":{"OBJECTID":675,"PSINUM":"RFL01","SWFACID":" ","SITENAME":"RICHFORD VILLAGE","LOCCONF":"L","DATE_FIRST":"1952","DATE_LAST":"1974","ACRES":6.5,"STATUS":"CLOSED","WQMONITORING":"N","GASCOLLECTION":"N","TOWNNAME":"RICHFORD","LATITUDE":45.00143405,"LONGITUDE":-72.63123825},"geometry":{"type":"Point","coordinates":[-72.63123954224676,45.00144315303792]}},{"type":"Feature","properties":{"OBJECTID":676,"PSINUM":"RFL02","SWFACID":" ","SITENAME":"RICHFORD TOWN","LOCCONF":"L","DATE_FIRST":" ","DATE_LAST":"1952","ACRES":0,"STATUS":"CLOSED","WQMONITORING":"N","GASCOLLECTION":"N","TOWNNAME":"RICHFORD","LATITUDE":45.01060017,"LONGITUDE":-72.58539991},"geometry":{"type":"Point","coordinates":[-72.58540118746961,45.01060928270832]}},{"type":"Feature","properties":{"OBJECTID":677,"PSINUM":"AML01","SWFACID":"GI010","SITENAME":"ALBURG TOWN LANDFILL","LOCCONF":"L","DATE_FIRST":"1940","DATE_LAST":"U","ACRES":15,"STATUS":"CLOSED","WQMONITORING":"N","GASCOLLECTION":"N","TOWNNAME":"ALBURGH","LATITUDE":44.95976258,"LONGITUDE":-73.26846359},"geometry":{"type":"Point","coordinates":[-73.26846509068118,44.95977166099541]}},{"type":"Feature","properties":{"OBJECTID":678,"PSINUM":"NNL01","SWFACID":"ES030","SITENAME":"R.PARKER LANDFILL","LOCCONF":"L","DATE_FIRST":"1973","DATE_LAST":"1980","ACRES":3,"STATUS":"CLOSED","WQMONITORING":"N","GASCOLLECTION":"N","TOWNNAME":"NORTON","LATITUDE":45.00060169,"LONGITUDE":-71.76398374},"geometry":{"type":"Point","coordinates":[-71.76398473663899,45.00061082638721]}},{"type":"Feature","properties":{"OBJECTID":679,"PSINUM":"NNL02","SWFACID":" ","SITENAME":"NORTON TOWN","LOCCONF":"L","DATE_FIRST":"1948","DATE_LAST":"1975","ACRES":1,"STATUS":"CLOSED","WQMONITORING":"N","GASCOLLECTION":"N","TOWNNAME":"NORTON","LATITUDE":45.00143497,"LONGITUDE":-71.76814993},"geometry":{"type":"Point","coordinates":[-71.76815093191843,45.001444104859644]}},{"type":"Feature","properties":{"OBJECTID":680,"PSINUM":"JBL01","SWFACID":" ","SITENAME":"JAY PEAK, INC.","LOCCONF":"L","DATE_FIRST":"1978","DATE_LAST":"U","ACRES":2,"STATUS":"CLOSED","WQMONITORING":"N","GASCOLLECTION":"N","TOWNNAME":"JAY","LATITUDE":44.9364348,"LONGITUDE":-72.50177963},"geometry":{"type":"Point","coordinates":[-72.50178087110778,44.936443898887326]}},{"type":"Feature","properties":{"OBJECTID":681,"PSINUM":"TRL01","SWFACID":" ","SITENAME":"TROY TOWN","LOCCONF":"L","DATE_FIRST":"1950","DATE_LAST":"1972","ACRES":2,"STATUS":"CLOSED","WQMONITORING":"N","GASCOLLECTION":"N","TOWNNAME":"TROY","LATITUDE":44.99004529,"LONGITUDE":-72.38649764},"geometry":{"type":"Point","coordinates":[-72.38649884575689,44.990054401120325]}},{"type":"Feature","properties":{"OBJECTID":682,"PSINUM":"TRL02","SWFACID":" ","SITENAME":"LEBLANC, D.","LOCCONF":"L","DATE_FIRST":"1965","DATE_LAST":"U","ACRES":1,"STATUS":"CLOSED","WQMONITORING":"N","GASCOLLECTION":"N","TOWNNAME":"TROY","LATITUDE":44.98310112,"LONGITUDE":-72.38677524},"geometry":{"type":"Point","coordinates":[-72.38677644122296,44.98311023344958]}},{"type":"Feature","properties":{"OBJECTID":683,"PSINUM":"IML01","SWFACID":"GI300","SITENAME":"T.LABOMBARD LANDFILL","LOCCONF":"L","DATE_FIRST":"1970","DATE_LAST":"U","ACRES":3,"STATUS":"CLOSED","WQMONITORING":"Y","GASCOLLECTION":"N","TOWNNAME":"ISLE LA MOTTE","LATITUDE":44.87892979,"LONGITUDE":-73.34735502},"geometry":{"type":"Point","coordinates":[-73.3473565336145,44.87893885388183]}},{"type":"Feature","properties":{"OBJECTID":684,"PSINUM":"IML03","SWFACID":" ","SITENAME":"LABOMBARD, T.","LOCCONF":"L","DATE_FIRST":"1970","DATE_LAST":"U","ACRES":3,"STATUS":"CLOSED","WQMONITORING":"N","GASCOLLECTION":"N","TOWNNAME":"ISLE LA MOTTE","LATITUDE":44.88115204,"LONGITUDE":-73.34707714},"geometry":{"type":"Point","coordinates":[-73.34707865834535,44.88116109588294]}},{"type":"Feature","properties":{"OBJECTID":685,"PSINUM":"IML02","SWFACID":"GI300","SITENAME":"ISLE LA MOTTE LANDFILL","LOCCONF":" ","DATE_FIRST":"1970","DATE_LAST":"1992","ACRES":2,"STATUS":"CLOSED","WQMONITORING":"Y","GASCOLLECTION":"N","TOWNNAME":"ISLE LA MOTTE","LATITUDE":44.87719999,"LONGITUDE":-73.34809999},"geometry":{"type":"Point","coordinates":[-73.34810151320767,44.877209053874786]}},{"type":"Feature","properties":{"OBJECTID":686,"PSINUM":"SLL01","SWFACID":" ","SITENAME":"SHELDON TOWN","LOCCONF":"L","DATE_FIRST":"1960","DATE_LAST":"1970","ACRES":2,"STATUS":"CLOSED","WQMONITORING":"N","GASCOLLECTION":"N","TOWNNAME":"SHELDON","LATITUDE":44.88032356,"LONGITUDE":-72.9423568},"geometry":{"type":"Point","coordinates":[-72.94235818243597,44.88033263244445]}},{"type":"Feature","properties":{"OBJECTID":687,"PSINUM":"SLL02","SWFACID":" ","SITENAME":"PARENT, U.","LOCCONF":"L","DATE_FIRST":" ","DATE_LAST":"1972","ACRES":0.25,"STATUS":"CLOSED","WQMONITORING":"N","GASCOLLECTION":"N","TOWNNAME":"SHELDON","LATITUDE":44.89782381,"LONGITUDE":-72.86430071},"geometry":{"type":"Point","coordinates":[-72.86430206934556,44.89783289339144]}},{"type":"Feature","properties":{"OBJECTID":711,"PSINUM":"FXL01","SWFACID":" ","SITENAME":"RAINVILLE, W.","LOCCONF":"L","DATE_FIRST":"1960","DATE_LAST":"1971","ACRES":4,"STATUS":"CLOSED","WQMONITORING":"N","GASCOLLECTION":"N","TOWNNAME":"FAIRFIELD","LATITUDE":44.77282613,"LONGITUDE":-72.88263552},"geometry":{"type":"Point","coordinates":[-72.88263687304222,44.77283518380704]}},{"type":"Feature","properties":{"OBJECTID":712,"PSINUM":"FXL02","SWFACID":" ","SITENAME":"HANNA BROTHERS","LOCCONF":"L","DATE_FIRST":" ","DATE_LAST":"1960","ACRES":0,"STATUS":"CLOSED","WQMONITORING":"N","GASCOLLECTION":"N","TOWNNAME":"FAIRFIELD","LATITUDE":44.79838106,"LONGITUDE":-72.94374933},"geometry":{"type":"Point","coordinates":[-72.9437507102772,44.79839012214239]}},{"type":"Feature","properties":{"OBJECTID":713,"PSINUM":"B1L01","SWFACID":"ES070","SITENAME":"BRIGHTON TOWN LANDFILL","LOCCONF":"L","DATE_FIRST":"1965","DATE_LAST":"U","ACRES":2,"STATUS":"CLOSED","WQMONITORING":"N","GASCOLLECTION":"N","TOWNNAME":"BRIGHTON","LATITUDE":44.77949388,"LONGITUDE":-71.85870542},"geometry":{"type":"Point","coordinates":[-71.85870643330294,44.77950297849543]}},{"type":"Feature","properties":{"OBJECTID":714,"PSINUM":"B1L02","SWFACID":" ","SITENAME":"BRIGHTON SNMBL.","LOCCONF":"L","DATE_FIRST":"1940","DATE_LAST":"1970","ACRES":1,"STATUS":"CLOSED","WQMONITORING":"N","GASCOLLECTION":"N","TOWNNAME":"BRIGHTON","LATITUDE":44.78838272,"LONGITUDE":-71.90953976},"geometry":{"type":"Point","coordinates":[-71.90954079051214,44.788391820392405]}},{"type":"Feature","properties":{"OBJECTID":715,"PSINUM":"BGL02","SWFACID":" ","SITENAME":"GLEASON, M.","LOCCONF":"L","DATE_FIRST":"1930","DATE_LAST":"1970","ACRES":2,"STATUS":"CLOSED","WQMONITORING":"N","GASCOLLECTION":"N","TOWNNAME":"IRASBURG","LATITUDE":44.81671506,"LONGITUDE":-72.20815785},"geometry":{"type":"Point","coordinates":[-72.20815898262359,44.81672414552743]}},{"type":"Feature","properties":{"OBJECTID":716,"PSINUM":"IBL01","SWFACID":"OL310","SITENAME":"IRASBURG LANDFILL","LOCCONF":" ","DATE_FIRST":"1970","DATE_LAST":"1993","ACRES":3,"STATUS":"CLOSED","WQMONITORING":"Y","GASCOLLECTION":"N","TOWNNAME":"IRASBURG","LATITUDE":44.80419999,"LONGITUDE":-72.2678},"geometry":{"type":"Point","coordinates":[-72.26780114785282,44.80420908086324]}},{"type":"Feature","properties":{"OBJECTID":717,"PSINUM":"LOL01","SWFACID":" ","SITENAME":"LOWELL TOWN","LOCCONF":"L","DATE_FIRST":"1900","DATE_LAST":"1976","ACRES":1,"STATUS":"CLOSED","WQMONITORING":"N","GASCOLLECTION":"N","TOWNNAME":"LOWELL","LATITUDE":44.78893707,"LONGITUDE":-72.48844428},"geometry":{"type":"Point","coordinates":[-72.48844550866504,44.78894614053385]}},{"type":"Feature","properties":{"OBJECTID":718,"PSINUM":"BAL01","SWFACID":" ","SITENAME":"BAKERSFIELD TOWN","LOCCONF":"L","DATE_FIRST":"1939","DATE_LAST":"1960","ACRES":1,"STATUS":"CLOSED","WQMONITORING":"N","GASCOLLECTION":"N","TOWNNAME":"BAKERSFIELD","LATITUDE":44.78365933,"LONGITUDE":-72.80513111},"geometry":{"type":"Point","coordinates":[-72.80513243729575,44.78366839501188]}},{"type":"Feature","properties":{"OBJECTID":719,"PSINUM":"BAL02","SWFACID":" ","SITENAME":"BAKERSFIELD TOWN","LOCCONF":"L","DATE_FIRST":"1959","DATE_LAST":"1971","ACRES":3,"STATUS":"CLOSED","WQMONITORING":"N","GASCOLLECTION":"N","TOWNNAME":"BAKERSFIELD","LATITUDE":44.78032595,"LONGITUDE":-72.79651932},"geometry":{"type":"Point","coordinates":[-72.79652065215247,44.78033501725609]}},{"type":"Feature","properties":{"OBJECTID":720,"PSINUM":"WTL02","SWFACID":" ","SITENAME":"FAUSER, D.","LOCCONF":"L","DATE_FIRST":"1930","DATE_LAST":"1965","ACRES":0.5,"STATUS":"CLOSED","WQMONITORING":"N","GASCOLLECTION":"N","TOWNNAME":"WESTMORE","LATITUDE":44.76116099,"LONGITUDE":-72.00843048},"geometry":{"type":"Point","coordinates":[-72.00843154181432,44.761170080159395]}},{"type":"Feature","properties":{"OBJECTID":753,"PSINUM":"X5L02","SWFACID":" ","SITENAME":"WOLCOTT TOWN LANDFILL","LOCCONF":"L","DATE_FIRST":"1961","DATE_LAST":"1971","ACRES":1,"STATUS":"CLOSED","WQMONITORING":"N","GASCOLLECTION":"N","TOWNNAME":"WOLCOTT","LATITUDE":44.54283074,"LONGITUDE":-72.45844303},"geometry":{"type":"Point","coordinates":[-72.45844422760071,44.542839770113574]}},{"type":"Feature","properties":{"OBJECTID":754,"PSINUM":"X5L01","SWFACID":"LA920","SITENAME":"WOLCOTT LANDFILL","LOCCONF":" ","DATE_FIRST":"1980","DATE_LAST":"1994","ACRES":2,"STATUS":"CLOSED","WQMONITORING":"Y","GASCOLLECTION":"N","TOWNNAME":"WOLCOTT","LATITUDE":44.55969999,"LONGITUDE":-72.47689999},"geometry":{"type":"Point","coordinates":[-72.47690119975762,44.559709029969596]}},{"type":"Feature","properties":{"OBJECTID":755,"PSINUM":"UHL01","SWFACID":" ","SITENAME":"UNDERHILL TOWN","LOCCONF":"L","DATE_FIRST":"1979","DATE_LAST":"U","ACRES":60,"STATUS":"CLOSED","WQMONITORING":"N","GASCOLLECTION":"N","TOWNNAME":"UNDERHILL","LATITUDE":44.53255132,"LONGITUDE":-72.88262524},"geometry":{"type":"Point","coordinates":[-72.88262657738733,44.53256033764913]}},{"type":"Feature","properties":{"OBJECTID":756,"PSINUM":"UHL02","SWFACID":" ","SITENAME":"SHERA, R.","LOCCONF":"L","DATE_FIRST":"1972","DATE_LAST":"1979","ACRES":10,"STATUS":"CLOSED","WQMONITORING":"N","GASCOLLECTION":"N","TOWNNAME":"UNDERHILL","LATITUDE":44.52477354,"LONGITUDE":-72.88540279},"geometry":{"type":"Point","coordinates":[-72.88540413098748,44.52478255578153]}},{"type":"Feature","properties":{"OBJECTID":757,"PSINUM":"UHL03","SWFACID":" ","SITENAME":"UNDERHILL TOWN","LOCCONF":"L","DATE_FIRST":"1960","DATE_LAST":"1965","ACRES":1,"STATUS":"CLOSED","WQMONITORING":"N","GASCOLLECTION":"N","TOWNNAME":"UNDERHILL","LATITUDE":44.52282916,"LONGITUDE":-72.88568048},"geometry":{"type":"Point","coordinates":[-72.88568181519408,44.52283816939035]}},{"type":"Feature","properties":{"OBJECTID":758,"PSINUM":null,"SWFACID":"CH860","SITENAME":"UNDERHILL LANDFILL","LOCCONF":" ","DATE_FIRST":"1980","DATE_LAST":"1993","ACRES":0,"STATUS":"CLOSED","WQMONITORING":"Y","GASCOLLECTION":"N","TOWNNAME":"UNDERHILL","LATITUDE":44.5297,"LONGITUDE":-72.8847},"geometry":{"type":"Point","coordinates":[-72.88470133403875,44.529709010004204]}},{"type":"Feature","properties":{"OBJECTID":759,"PSINUM":"W1L01","SWFACID":" ","SITENAME":"WHEELOCK TOWN","LOCCONF":"L","DATE_FIRST":"1930","DATE_LAST":"1972","ACRES":0.5,"STATUS":"CLOSED","WQMONITORING":"N","GASCOLLECTION":"N","TOWNNAME":"WHEELOCK","LATITUDE":44.58616467,"LONGITUDE":-72.07982051},"geometry":{"type":"Point","coordinates":[-72.07982158223051,44.58617372153424]}},{"type":"Feature","properties":{"OBJECTID":760,"PSINUM":"GUL01","SWFACID":" ","SITENAME":"SILVER, H.","LOCCONF":"L","DATE_FIRST":"1900","DATE_LAST":"1960","ACRES":0,"STATUS":"CLOSED","WQMONITORING":"N","GASCOLLECTION":"N","TOWNNAME":"GUILDHALL","LATITUDE":44.56366635,"LONGITUDE":-71.59869764},"geometry":{"type":"Point","coordinates":[-71.59869855386061,44.56367541932834]}},{"type":"Feature","properties":{"OBJECTID":761,"PSINUM":"HXL02","SWFACID":" ","SITENAME":"JONES, R.","LOCCONF":"L","DATE_FIRST":"1960","DATE_LAST":"1973","ACRES":1,"STATUS":"CLOSED","WQMONITORING":"N","GASCOLLECTION":"N","TOWNNAME":"HYDE PARK","LATITUDE":44.66255047,"LONGITUDE":-72.58761575},"geometry":{"type":"Point","coordinates":[-72.58761700087771,44.66255951701549]}},{"type":"Feature","properties":{"OBJECTID":762,"PSINUM":"HXL01","SWFACID":" ","SITENAME":"IANNI DEV.","LOCCONF":"L","DATE_FIRST":" ","DATE_LAST":"NU","ACRES":1,"STATUS":"CLOSED","WQMONITORING":"N","GASCOLLECTION":"N","TOWNNAME":"MORRISTOWN","LATITUDE":44.52227509,"LONGITUDE":-72.62789409},"geometry":{"type":"Point","coordinates":[-72.62789534374983,44.522284110613526]}},{"type":"Feature","properties":{"OBJECTID":763,"PSINUM":null,"SWFACID":"LA470","SITENAME":"LAMOILLE LANDFILL & SALVAGE DEPOT","LOCCONF":" ","DATE_FIRST":"1980","DATE_LAST":"1993","ACRES":0,"STATUS":"CLOSED","WQMONITORING":"Y","GASCOLLECTION":"Y","TOWNNAME":"MORRISTOWN","LATITUDE":44.5717,"LONGITUDE":-72.5592},"geometry":{"type":"Point","coordinates":[-72.55920122896123,44.571709029688954]}},{"type":"Feature","properties":{"OBJECTID":764,"PSINUM":"HDL01","SWFACID":"WA020","SITENAME":"R.TOWNS LANDFILL","LOCCONF":"L","DATE_FIRST":"1965","DATE_LAST":"U","ACRES":3,"STATUS":"CLOSED","WQMONITORING":"N","GASCOLLECTION":"N","TOWNNAME":"HARDWICK","LATITUDE":44.48088795,"LONGITUDE":-72.32621582},"geometry":{"type":"Point","coordinates":[-72.32621697161984,44.48089697596466]}},{"type":"Feature","properties":{"OBJECTID":765,"PSINUM":"HDL02","SWFACID":" ","SITENAME":"BROWN CO.","LOCCONF":"L","DATE_FIRST":" ","DATE_LAST":"1970","ACRES":2,"STATUS":"CLOSED","WQMONITORING":"N","GASCOLLECTION":"N","TOWNNAME":"HARDWICK","LATITUDE":44.51588699,"LONGITUDE":-72.37344015},"geometry":{"type":"Point","coordinates":[-72.37344131614591,44.515896024942755]}},{"type":"Feature","properties":{"OBJECTID":766,"PSINUM":"HDL03","SWFACID":" ","SITENAME":"ROWELL BROTHERS","LOCCONF":"L","DATE_FIRST":" ","DATE_LAST":"NU","ACRES":2,"STATUS":"CLOSED","WQMONITORING":"N","GASCOLLECTION":"N","TOWNNAME":"HARDWICK","LATITUDE":44.51366503,"LONGITUDE":-72.37121798},"geometry":{"type":"Point","coordinates":[-72.3712191512968,44.51367405994802]}},{"type":"Feature","properties":{"OBJECTID":767,"PSINUM":"HDL04","SWFACID":" ","SITENAME":"URIE, W.","LOCCONF":"L","DATE_FIRST":"1979","DATE_LAST":"1979","ACRES":0.5,"STATUS":"CLOSED","WQMONITORING":"N","GASCOLLECTION":"N","TOWNNAME":"HARDWICK","LATITUDE":44.51255395,"LONGITUDE":-72.37649573},"geometry":{"type":"Point","coordinates":[-72.37649690234645,44.51256297608559]}},{"type":"Feature","properties":{"OBJECTID":768,"PSINUM":"S1L02","SWFACID":" ","SITENAME":"STOWE TOWN","LOCCONF":"L","DATE_FIRST":"1970","DATE_LAST":"U","ACRES":0,"STATUS":"CLOSED","WQMONITORING":"N","GASCOLLECTION":"N","TOWNNAME":"STOWE","LATITUDE":44.4703315,"LONGITUDE":-72.68622895},"geometry":{"type":"Point","coordinates":[-72.6862302221118,44.47034050833716]}},{"type":"Feature","properties":{"OBJECTID":769,"PSINUM":"S1L06","SWFACID":" ","SITENAME":"UNKNOWN","LOCCONF":"L","DATE_FIRST":" ","DATE_LAST":"U","ACRES":5,"STATUS":"CLOSED","WQMONITORING":"N","GASCOLLECTION":"N","TOWNNAME":"STOWE","LATITUDE":44.52116337,"LONGITUDE":-72.77039964},"geometry":{"type":"Point","coordinates":[-72.77040094384135,44.52117239224854]}},{"type":"Feature","properties":{"OBJECTID":770,"PSINUM":"S1L01","SWFACID":" ","SITENAME":"STOWE TOWN","LOCCONF":"L","DATE_FIRST":"1970","DATE_LAST":"1980","ACRES":26,"STATUS":"CLOSED","WQMONITORING":"N","GASCOLLECTION":"N","TOWNNAME":"STOWE","LATITUDE":44.44033204,"LONGITUDE":-72.7209516},"geometry":{"type":"Point","coordinates":[-72.72095287330997,44.4403410421411]}},{"type":"Feature","properties":{"OBJECTID":771,"PSINUM":"S1L03","SWFACID":" ","SITENAME":"STOWE VILLAGE","LOCCONF":"L","DATE_FIRST":"1920","DATE_LAST":"1970","ACRES":3,"STATUS":"CLOSED","WQMONITORING":"N","GASCOLLECTION":"N","TOWNNAME":"STOWE","LATITUDE":44.47116485,"LONGITUDE":-72.6856731},"geometry":{"type":"Point","coordinates":[-72.68567437280961,44.471173865731885]}},{"type":"Feature","properties":{"OBJECTID":772,"PSINUM":"S1L04","SWFACID":" ","SITENAME":"PERCY, D.","LOCCONF":"L","DATE_FIRST":"1965","DATE_LAST":"U","ACRES":3,"STATUS":"CLOSED","WQMONITORING":"N","GASCOLLECTION":"N","TOWNNAME":"STOWE","LATITUDE":44.47727573,"LONGITUDE":-72.698174},"geometry":{"type":"Point","coordinates":[-72.69817527542382,44.47728473934276]}},{"type":"Feature","properties":{"OBJECTID":773,"PSINUM":"S1L05","SWFACID":" ","SITENAME":"MT. MANSFIELD CO.","LOCCONF":"L","DATE_FIRST":"1962","DATE_LAST":"1972","ACRES":0.25,"STATUS":"CLOSED","WQMONITORING":"N","GASCOLLECTION":"N","TOWNNAME":"STOWE","LATITUDE":44.50560805,"LONGITUDE":-72.76456574},"geometry":{"type":"Point","coordinates":[-72.76456704215502,44.505617062676556]}},{"type":"Feature","properties":{"OBJECTID":774,"PSINUM":"ELL01","SWFACID":" ","SITENAME":"SMITH, G.","LOCCONF":"L","DATE_FIRST":" ","DATE_LAST":"U","ACRES":1,"STATUS":"CLOSED","WQMONITORING":"N","GASCOLLECTION":"N","TOWNNAME":"ELMORE","LATITUDE":44.53171974,"LONGITUDE":-72.53038992},"geometry":{"type":"Point","coordinates":[-72.53039113618489,44.531728766921596]}},{"type":"Feature","properties":{"OBJECTID":775,"PSINUM":"LYL03","SWFACID":" ","SITENAME":"CHESTER, E.","LOCCONF":"L","DATE_FIRST":"1938","DATE_LAST":"1960","ACRES":0.5,"STATUS":"CLOSED","WQMONITORING":"N","GASCOLLECTION":"N","TOWNNAME":"LYNDON","LATITUDE":44.52422247,"LONGITUDE":-72.00092888},"geometry":{"type":"Point","coordinates":[-72.00092992615834,44.524231515934666]}},{"type":"Feature","properties":{"OBJECTID":776,"PSINUM":"LYL04","SWFACID":" ","SITENAME":"PARKER, D.","LOCCONF":"L","DATE_FIRST":"1950","DATE_LAST":"1955","ACRES":0,"STATUS":"CLOSED","WQMONITORING":"N","GASCOLLECTION":"N","TOWNNAME":"LYNDON","LATITUDE":44.51672266,"LONGITUDE":-71.99426211},"geometry":{"type":"Point","coordinates":[-71.99426315402795,44.5167317031575]}},{"type":"Feature","properties":{"OBJECTID":777,"PSINUM":"LYL01","SWFACID":"CA380","SITENAME":"PARKER SUPERFUND SITE","LOCCONF":" ","DATE_FIRST":"1972","DATE_LAST":"U","ACRES":7,"STATUS":"CLOSED","WQMONITORING":"Y","GASCOLLECTION":"N","TOWNNAME":"LYNDON","LATITUDE":44.51889999,"LONGITUDE":-71.9903},"geometry":{"type":"Point","coordinates":[-71.99030103508812,44.51890903994681]}},{"type":"Feature","properties":{"OBJECTID":778,"PSINUM":"LYL02","SWFACID":"CA390","SITENAME":"PARKER DARLING HILL LANDFILL","LOCCONF":" ","DATE_FIRST":"1955","DATE_LAST":"1969","ACRES":5,"STATUS":"CLOSED","WQMONITORING":"N","GASCOLLECTION":"N","TOWNNAME":"LYNDON","LATITUDE":44.5544,"LONGITUDE":-71.98469999},"geometry":{"type":"Point","coordinates":[-71.98470103539478,44.5544090466085]}},{"type":"Feature","properties":{"OBJECTID":779,"PSINUM":"SDL04","SWFACID":" ","SITENAME":"ELLIOT, E.","LOCCONF":"L","DATE_FIRST":"1979","DATE_LAST":"U","ACRES":0.00999999,"STATUS":"CLOSED","WQMONITORING":"N","GASCOLLECTION":"N","TOWNNAME":"WALDEN","LATITUDE":44.50088822,"LONGITUDE":-72.17593422},"geometry":{"type":"Point","coordinates":[-72.17593532082167,44.50089725281189]}},{"type":"Feature","properties":{"OBJECTID":780,"PSINUM":"WBL01","SWFACID":" ","SITENAME":"FARROW, J.","LOCCONF":"L","DATE_FIRST":"1930","DATE_LAST":"1972","ACRES":1,"STATUS":"CLOSED","WQMONITORING":"N","GASCOLLECTION":"N","TOWNNAME":"WALDEN","LATITUDE":44.47644394,"LONGITUDE":-72.24121322},"geometry":{"type":"Point","coordinates":[-72.24121433947315,44.476452970185846]}},{"type":"Feature","properties":{"OBJECTID":781,"PSINUM":"LXL01","SWFACID":"ES390","SITENAME":"LUNENBURG LANDFILL","LOCCONF":" ","DATE_FIRST":"1977","DATE_LAST":"U","ACRES":3,"STATUS":"CLOSED","WQMONITORING":"N","GASCOLLECTION":"N","TOWNNAME":"LUNENBURG","LATITUDE":44.46219999,"LONGITUDE":-71.66479999},"geometry":{"type":"Point","coordinates":[-71.66480092230316,44.46220904111297]}},{"type":"Feature","properties":{"OBJECTID":782,"PSINUM":"","SWFACID":"ES690","SITENAME":"DALTON HYDRO","LOCCONF":"H","DATE_FIRST":"U","DATE_LAST":"1992","ACRES":0,"STATUS":"CLOSED","WQMONITORING":"N","GASCOLLECTION":"N","TOWNNAME":"LUNENBURG","LATITUDE":44.41297697,"LONGITUDE":-71.7103755},"geometry":{"type":"Point","coordinates":[-71.71037644342107,44.412986008502244]}},{"type":"Feature","properties":{"OBJECTID":783,"PSINUM":"JEL02","SWFACID":" ","SITENAME":"MARTIN, P.","LOCCONF":"L","DATE_FIRST":"1960","DATE_LAST":"1969","ACRES":2,"STATUS":"CLOSED","WQMONITORING":"N","GASCOLLECTION":"N","TOWNNAME":"JERICHO","LATITUDE":44.45338538,"LONGITUDE":-72.95901332},"geometry":{"type":"Point","coordinates":[-72.95901468099815,44.45339437789291]}},{"type":"Feature","properties":{"OBJECTID":784,"PSINUM":"JEL03","SWFACID":" ","SITENAME":"TARBOX, L.","LOCCONF":"L","DATE_FIRST":"1940","DATE_LAST":"1960","ACRES":0.25,"STATUS":"CLOSED","WQMONITORING":"N","GASCOLLECTION":"N","TOWNNAME":"JERICHO","LATITUDE":44.48338452,"LONGITUDE":-72.98290323},"geometry":{"type":"Point","coordinates":[-72.98290459535365,44.48339352038328]}},{"type":"Feature","properties":{"OBJECTID":785,"PSINUM":"JEL01","SWFACID":"CH330","SITENAME":"JERICHO LANDFILL","LOCCONF":" ","DATE_FIRST":"1970","DATE_LAST":"1993","ACRES":2,"STATUS":"CLOSED","WQMONITORING":"Y","GASCOLLECTION":"N","TOWNNAME":"JERICHO","LATITUDE":44.45109999,"LONGITUDE":-72.97939999},"geometry":{"type":"Point","coordinates":[-72.97940135928648,44.45110899214829]}},{"type":"Feature","properties":{"OBJECTID":786,"PSINUM":"SDL01","SWFACID":" ","SITENAME":"STATE OF VERMONT","LOCCONF":"L","DATE_FIRST":"1960","DATE_LAST":"1972","ACRES":2,"STATUS":"CLOSED","WQMONITORING":"N","GASCOLLECTION":"N","TOWNNAME":"ST. JOHNSBURY","LATITUDE":44.40978047,"LONGITUDE":-72.02370567},"geometry":{"type":"Point","coordinates":[-72.02370671758808,44.409789495926105]}},{"type":"Feature","properties":{"OBJECTID":787,"PSINUM":"SDL02","SWFACID":" ","SITENAME":"STATE OF VERMONT","LOCCONF":"L","DATE_FIRST":"1959","DATE_LAST":"1973","ACRES":1,"STATUS":"CLOSED","WQMONITORING":"N","GASCOLLECTION":"N","TOWNNAME":"ST. JOHNSBURY","LATITUDE":44.40505833,"LONGITUDE":-72.02342779},"geometry":{"type":"Point","coordinates":[-72.0234288312336,44.405067354251436]}},{"type":"Feature","properties":{"OBJECTID":788,"PSINUM":"SDL03","SWFACID":" ","SITENAME":"ST. JOHNSBURY TOWN","LOCCONF":"L","DATE_FIRST":"1900","DATE_LAST":"1930","ACRES":2,"STATUS":"CLOSED","WQMONITORING":"N","GASCOLLECTION":"N","TOWNNAME":"ST. JOHNSBURY","LATITUDE":44.45672397,"LONGITUDE":-72.01065077},"geometry":{"type":"Point","coordinates":[-72.01065180947165,44.45673299898453]}},{"type":"Feature","properties":{"OBJECTID":789,"PSINUM":"SDL05","SWFACID":" ","SITENAME":"STATE OF VERMONT","LOCCONF":"L","DATE_FIRST":"1970","DATE_LAST":"U","ACRES":2,"STATUS":"CLOSED","WQMONITORING":"N","GASCOLLECTION":"N","TOWNNAME":"ST. JOHNSBURY","LATITUDE":44.40450287,"LONGITUDE":-72.02120555},"geometry":{"type":"Point","coordinates":[-72.02120659112309,44.404511898424516]}},{"type":"Feature","properties":{"OBJECTID":790,"PSINUM":"SDL06","SWFACID":" ","SITENAME":"MURPHY, B.","LOCCONF":"L","DATE_FIRST":"1900","DATE_LAST":"1930","ACRES":1,"STATUS":"CLOSED","WQMONITORING":"N","GASCOLLECTION":"N","TOWNNAME":"ST. JOHNSBURY","LATITUDE":44.4183913,"LONGITUDE":-72.0287064},"geometry":{"type":"Point","coordinates":[-72.02870744571385,44.41840032833262]}},{"type":"Feature","properties":{"OBJECTID":791,"PSINUM":"COL01","SWFACID":" ","SITENAME":"CONCORD TOWN","LOCCONF":"L","DATE_FIRST":"1930","DATE_LAST":"U","ACRES":1,"STATUS":"CLOSED","WQMONITORING":"N","GASCOLLECTION":"N","TOWNNAME":"CONCORD","LATITUDE":44.44700221,"LONGITUDE":-71.87759238},"geometry":{"type":"Point","coordinates":[-71.87759338122865,44.44701124883907]}},{"type":"Feature","properties":{"OBJECTID":792,"PSINUM":"X6L01","SWFACID":" ","SITENAME":"WOODBURY TOWN","LOCCONF":"L","DATE_FIRST":" ","DATE_LAST":"1971","ACRES":2,"STATUS":"CLOSED","WQMONITORING":"N","GASCOLLECTION":"N","TOWNNAME":"WOODBURY","LATITUDE":44.41950045,"LONGITUDE":-72.42677352},"geometry":{"type":"Point","coordinates":[-72.42677469568525,44.41950946114159]}},{"type":"Feature","properties":{"OBJECTID":793,"PSINUM":"X9L01","SWFACID":" ","SITENAME":"WORCESTER TOWN","LOCCONF":"L","DATE_FIRST":"1966","DATE_LAST":"1976","ACRES":3,"STATUS":"CLOSED","WQMONITORING":"N","GASCOLLECTION":"N","TOWNNAME":"WORCESTER","LATITUDE":44.4128335,"LONGITUDE":-72.54927797},"geometry":{"type":"Point","coordinates":[-72.54927918820894,44.41284250745949]}},{"type":"Feature","properties":{"OBJECTID":794,"PSINUM":"BOL01","SWFACID":" ","SITENAME":"WHEELER, X.","LOCCONF":"L","DATE_FIRST":"1965","DATE_LAST":"1973","ACRES":1,"STATUS":"CLOSED","WQMONITORING":"N","GASCOLLECTION":"N","TOWNNAME":"BOLTON","LATITUDE":44.42866406,"LONGITUDE":-72.90428907},"geometry":{"type":"Point","coordinates":[-72.90429040689295,44.42867306062266]}},{"type":"Feature","properties":{"OBJECTID":795,"PSINUM":"BOL02","SWFACID":" ","SITENAME":"FULLER, W.","LOCCONF":"L","DATE_FIRST":" ","DATE_LAST":"NU","ACRES":0.02999999,"STATUS":"CLOSED","WQMONITORING":"N","GASCOLLECTION":"N","TOWNNAME":"BOLTON","LATITUDE":44.37116564,"LONGITUDE":-72.88262102},"geometry":{"type":"Point","coordinates":[-72.88262234670674,44.37117462629051]}},{"type":"Feature","properties":{"OBJECTID":796,"PSINUM":"CBL01","SWFACID":" ","SITENAME":"CALAIS TOWN","LOCCONF":"L","DATE_FIRST":"1953","DATE_LAST":"1971","ACRES":1,"STATUS":"CLOSED","WQMONITORING":"N","GASCOLLECTION":"N","TOWNNAME":"CALAIS","LATITUDE":44.36589068,"LONGITUDE":-72.43649501},"geometry":{"type":"Point","coordinates":[-72.43649618708722,44.36589968087321]}},{"type":"Feature","properties":{"OBJECTID":797,"PSINUM":"BDL01","SWFACID":"CA070","SITENAME":"BARNET TOWN LANDFILL","LOCCONF":"L","DATE_FIRST":"1969","DATE_LAST":"1992","ACRES":10,"STATUS":"CLOSED","WQMONITORING":"Y","GASCOLLECTION":"N","TOWNNAME":"BARNET","LATITUDE":44.36339263,"LONGITUDE":-72.03981719},"geometry":{"type":"Point","coordinates":[-72.03981823784521,44.36340164974542]}},{"type":"Feature","properties":{"OBJECTID":798,"PSINUM":"BDL02","SWFACID":" ","SITENAME":"BARNET TOWN","LOCCONF":"L","DATE_FIRST":"1930","DATE_LAST":"1960","ACRES":1,"STATUS":"CLOSED","WQMONITORING":"N","GASCOLLECTION":"N","TOWNNAME":"BARNET","LATITUDE":44.37117022,"LONGITUDE":-72.02814973},"geometry":{"type":"Point","coordinates":[-72.02815077748072,44.37117923843527]}},{"type":"Feature","properties":{"OBJECTID":799,"PSINUM":"BDL03","SWFACID":" ","SITENAME":"BIMSON, C.","LOCCONF":"L","DATE_FIRST":"1960","DATE_LAST":"1969","ACRES":0,"STATUS":"CLOSED","WQMONITORING":"N","GASCOLLECTION":"N","TOWNNAME":"BARNET","LATITUDE":44.29117184,"LONGITUDE":-72.06009392},"geometry":{"type":"Point","coordinates":[-72.06009496328187,44.291180846414555]}},{"type":"Feature","properties":{"OBJECTID":800,"PSINUM":"PCL01","SWFACID":" ","SITENAME":"GOSLANT, K.","LOCCONF":"L","DATE_FIRST":"1950","DATE_LAST":"1980","ACRES":2,"STATUS":"CLOSED","WQMONITORING":"N","GASCOLLECTION":"N","TOWNNAME":"PEACHAM","LATITUDE":44.34978097,"LONGITUDE":-72.16898631},"geometry":{"type":"Point","coordinates":[-72.16898739809409,44.349789980552494]}},{"type":"Feature","properties":{"OBJECTID":801,"PSINUM":"PCL02","SWFACID":" ","SITENAME":"WHITE","LOCCONF":"L","DATE_FIRST":"1930","DATE_LAST":"1976","ACRES":2,"STATUS":"CLOSED","WQMONITORING":"N","GASCOLLECTION":"N","TOWNNAME":"PEACHAM","LATITUDE":44.34672563,"LONGITUDE":-72.16370783},"geometry":{"type":"Point","coordinates":[-72.16370891209431,44.34673464073048]}},{"type":"Feature","properties":{"OBJECTID":802,"PSINUM":null,"SWFACID":"CA570","SITENAME":"PEACHAM LANDFILL","LOCCONF":" ","DATE_FIRST":" ","DATE_LAST":" ","ACRES":0,"STATUS":"CLOSED","WQMONITORING":"N","GASCOLLECTION":"N","TOWNNAME":"PEACHAM","LATITUDE":44.34970637,"LONGITUDE":-72.16937411},"geometry":{"type":"Point","coordinates":[-72.16937519801048,44.349715375916524]}},{"type":"Feature","properties":{"OBJECTID":803,"PSINUM":"C1L02","SWFACID":" ","SITENAME":"UNKNOWN","LOCCONF":"L","DATE_FIRST":" ","DATE_LAST":"NU","ACRES":0,"STATUS":"CLOSED","WQMONITORING":"N","GASCOLLECTION":"N","TOWNNAME":"CHARLOTTE","LATITUDE":44.29005243,"LONGITUDE":-73.25429128},"geometry":{"type":"Point","coordinates":[-73.25429272800086,44.29006138422699]}},{"type":"Feature","properties":{"OBJECTID":929,"PSINUM":"CAL01","SWFACID":" ","SITENAME":"CABOT TOWN","LOCCONF":"L","DATE_FIRST":"1953","DATE_LAST":"1968","ACRES":2,"STATUS":"CLOSED","WQMONITORING":"N","GASCOLLECTION":"N","TOWNNAME":"CABOT","LATITUDE":44.42227835,"LONGITUDE":-72.31538073},"geometry":{"type":"Point","coordinates":[-72.31538187676858,44.42228736160035]}},{"type":"Feature","properties":{"OBJECTID":930,"PSINUM":"SKL07","SWFACID":" ","SITENAME":" ","LOCCONF":"L","DATE_FIRST":"","DATE_LAST":"","ACRES":0,"STATUS":"CLOSED","WQMONITORING":"N","GASCOLLECTION":"N","TOWNNAME":"SHELBURNE","LATITUDE":44.38755064,"LONGITUDE":-73.22540366},"geometry":{"type":"Point","coordinates":[-73.22540510579519,44.38755961443308]}},{"type":"Feature","properties":{"OBJECTID":931,"PSINUM":"SKL01","SWFACID":" ","SITENAME":"HUBBARD, C.","LOCCONF":"L","DATE_FIRST":"1954","DATE_LAST":"1964","ACRES":4,"STATUS":"CLOSED","WQMONITORING":"N","GASCOLLECTION":"N","TOWNNAME":"SHELBURNE","LATITUDE":44.38143999,"LONGITUDE":-73.20818122},"geometry":{"type":"Point","coordinates":[-73.2081826575577,44.38144896798644]}},{"type":"Feature","properties":{"OBJECTID":932,"PSINUM":"RHL01","SWFACID":" ","SITENAME":"RICHMOND TOWN","LOCCONF":"L","DATE_FIRST":" ","DATE_LAST":"1979","ACRES":1.5,"STATUS":"CLOSED","WQMONITORING":"N","GASCOLLECTION":"N","TOWNNAME":"RICHMOND","LATITUDE":44.43005198,"LONGITUDE":-73.01679138},"geometry":{"type":"Point","coordinates":[-73.01679275901783,44.430060970968775]}},{"type":"Feature","properties":{"OBJECTID":933,"PSINUM":"RHL02","SWFACID":" ","SITENAME":"UNKNOWN","LOCCONF":"L","DATE_FIRST":" ","DATE_LAST":"U","ACRES":0.1,"STATUS":"CLOSED","WQMONITORING":"N","GASCOLLECTION":"N","TOWNNAME":"RICHMOND","LATITUDE":44.37422049,"LONGITUDE":-72.9467889},"geometry":{"type":"Point","coordinates":[-72.94679024455834,44.37422947354101]}},{"type":"Feature","properties":{"OBJECTID":934,"PSINUM":"HNL01","SWFACID":"CH280","SITENAME":"HINESBURG LANDFILL","LOCCONF":" ","DATE_FIRST":"1972","DATE_LAST":"U","ACRES":6,"STATUS":"CLOSED","WQMONITORING":"N","GASCOLLECTION":"N","TOWNNAME":"HINESBURG","LATITUDE":44.32309999,"LONGITUDE":-73.0767},"geometry":{"type":"Point","coordinates":[-73.07670138361688,44.323108965906364]}},{"type":"Feature","properties":{"OBJECTID":935,"PSINUM":"X8L01","SWFACID":" ","SITENAME":"WOODSTOCK TOWN","LOCCONF":"L","DATE_FIRST":"1972","DATE_LAST":"U","ACRES":4,"STATUS":"CLOSED","WQMONITORING":"N","GASCOLLECTION":"N","TOWNNAME":"WOODSTOCK","LATITUDE":43.59312537,"LONGITUDE":-72.52564957},"geometry":{"type":"Point","coordinates":[-72.52565072688883,43.59313422511593]}},{"type":"Feature","properties":{"OBJECTID":936,"PSINUM":"X8L02","SWFACID":" ","SITENAME":"BARR, E.","LOCCONF":"L","DATE_FIRST":"1978","DATE_LAST":"1978","ACRES":0,"STATUS":"CLOSED","WQMONITORING":"N","GASCOLLECTION":"N","TOWNNAME":"WOODSTOCK","LATITUDE":43.57118102,"LONGITUDE":-72.55676115},"geometry":{"type":"Point","coordinates":[-72.55676231781864,43.57118987678233]}},{"type":"Feature","properties":{"OBJECTID":937,"PSINUM":"X8L03","SWFACID":" ","SITENAME":"HAPPY VALLEY","LOCCONF":"L","DATE_FIRST":"1954","DATE_LAST":"1954","ACRES":0.34,"STATUS":"CLOSED","WQMONITORING":"N","GASCOLLECTION":"N","TOWNNAME":"WOODSTOCK","LATITUDE":43.61562529,"LONGITUDE":-72.48648208},"geometry":{"type":"Point","coordinates":[-72.48648322723577,43.61563415817305]}},{"type":"Feature","properties":{"OBJECTID":938,"PSINUM":"XBL04","SWFACID":" ","SITENAME":" ","LOCCONF":"L","DATE_FIRST":"","DATE_LAST":"","ACRES":0,"STATUS":"CLOSED","WQMONITORING":"N","GASCOLLECTION":"N","TOWNNAME":"WOODSTOCK","LATITUDE":43.64423601,"LONGITUDE":-72.52481686},"geometry":{"type":"Point","coordinates":[-72.5248180205618,43.644244873583595]}},{"type":"Feature","properties":{"OBJECTID":939,"PSINUM":"ROL01","SWFACID":"RU620","SITENAME":"RUTLAND CITY LANDFILL","LOCCONF":" ","DATE_FIRST":"1940","DATE_LAST":"1991","ACRES":12,"STATUS":"CLOSED","WQMONITORING":"Y","GASCOLLECTION":"N","TOWNNAME":"RUTLAND CITY","LATITUDE":43.61952547,"LONGITUDE":-72.95155146},"geometry":{"type":"Point","coordinates":[-72.95155275592764,43.61953432227695]}},{"type":"Feature","properties":{"OBJECTID":1002,"PSINUM":"RTL02","SWFACID":" ","SITENAME":"CARRIS REELS","LOCCONF":"L","DATE_FIRST":" ","DATE_LAST":"U","ACRES":0,"STATUS":"CLOSED","WQMONITORING":"N","GASCOLLECTION":"N","TOWNNAME":"RUTLAND","LATITUDE":43.60451251,"LONGITUDE":-73.01094045},"geometry":{"type":"Point","coordinates":[-73.0109417704696,43.604521349597974]}}]}
