{"type":"FeatureCollection","features":[{"type":"Feature","properties":{"OBJECTID":669,"PSINUM":"CDL01","SWFACID":" ","SITENAME":"CANAAN TOWN","LOCCONF":"L","DATE_FIRST":"1956","DATE_LAST":"1975","ACRES":1,"STATUS":"CLOSED","WQMONITORING":"N","GASCOLLECTION":"N","TOWNNAME":"CANAAN","LATITUDE":44.98421311,"LONGITUDE":-71.54286307},"geometry":{"type":"Point","coordinates":[-71.5428639919213,44.98422225084539]}},{"type":"Feature","properties":{"OBJECTID":670,"PSINUM":"CDL02","SWFACID":" ","SITENAME":"CANAAN TOWN","LOCCONF":"L","DATE_FIRST":"1930","DATE_LAST":"1956","ACRES":0.25,"STATUS":"CLOSED","WQMONITORING":"N","GASCOLLECTION":"N","TOWNNAME":"CANAAN","LATITUDE":44.98699085,"LONGITUDE":-71.54175248},"geometry":{"type":"Point","coordinates":[-71.54175340187246,44.98699999412592]}},{"type":"Feature","properties":{"OBJECTID":671,"PSINUM":"HML01","SWFACID":" ","SITENAME":"BARNEY, R.","LOCCONF":"L","DATE_FIRST":" ","DATE_LAST":"1950","ACRES":0.1,"STATUS":"CLOSED","WQMONITORING":"N","GASCOLLECTION":"N","TOWNNAME":"HIGHGATE","LATITUDE":44.93559869,"LONGITUDE":-73.04846448},"geometry":{"type":"Point","coordinates":[-73.0484659076293,44.93560776783704]}},{"type":"Feature","properties":{"OBJECTID":672,"PSINUM":"HML02","SWFACID":" ","SITENAME":"RAYMO","LOCCONF":"L","DATE_FIRST":"1950","DATE_LAST":"NU","ACRES":2,"STATUS":"CLOSED","WQMONITORING":"N","GASCOLLECTION":"N","TOWNNAME":"HIGHGATE","LATITUDE":44.93976523,"LONGITUDE":-73.05651951},"geometry":{"type":"Point","coordinates":[-73.05652093557343,44.939774307032835]}},{"type":"Feature","properties":{"OBJECTID":673,"PSINUM":"HML03","SWFACID":"FR280","SITENAME":"YOUNG/HIGHGATE LANDFILL","LOCCONF":"L","DATE_FIRST":"1962","DATE_LAST":"U","ACRES":17,"STATUS":"CLOSED","WQMONITORING":"N","GASCOLLECTION":"N","TOWNNAME":"HIGHGATE","LATITUDE":44.93670938,"LONGITUDE":-73.08929722},"geometry":{"type":"Point","coordinates":[-73.08929865196866,44.9367184635084]}},{"type":"Feature","properties":{"OBJECTID":674,"PSINUM":null,"SWFACID":"FR310","SITENAME":"HIGHGATE LANDFILL","LOCCONF":" ","DATE_FIRST":"1985","DATE_LAST":"1993","ACRES":0,"STATUS":"CLOSED","WQMONITORING":"Y","GASCOLLECTION":"N","TOWNNAME":"HIGHGATE","LATITUDE":44.93639999,"LONGITUDE":-73.05859999},"geometry":{"type":"Point","coordinates":[-73.05860142127618,44.93640907527638]}},{"type":"Feature","properties":{"OBJECTID":675,"PSINUM":"RFL01","SWFACID":" ","SITENAME":"RICHFORD VILLAGE","LOCCONF":"L","DATE_FIRST":"1952","DATE_LAST":"1974","ACRES":6.5,"STATUS":"CLOSED","WQMONITORING":"N","GASCOLLECTION":"N","TOWNNAME":"RICHFORD","LATITUDE":45.00143405,"LONGITUDE":-72.63123825},"geometry":{"type":"Point","coordinates":[-72.63123954224676,45.00144315303792]}},{"type":"Feature","properties":{"OBJECTID":676,"PSINUM":"RFL02","SWFACID":" ","SITENAME":"RICHFORD TOWN","LOCCONF":"L","DATE_FIRST":" ","DATE_LAST":"1952","ACRES":0,"STATUS":"CLOSED","WQMONITORING":"N","GASCOLLECTION":"N","TOWNNAME":"RICHFORD","LATITUDE":45.01060017,"LONGITUDE":-72.58539991},"geometry":{"type":"Point","coordinates":[-72.58540118746961,45.01060928270832]}},{"type":"Feature","properties":{"OBJECTID":677,"PSINUM":"AML01","SWFACID":"GI010","SITENAME":"ALBURG TOWN LANDFILL","LOCCONF":"L","DATE_FIRST":"1940","DATE_LAST":"U","ACRES":15,"STATUS":"CLOSED","WQMONITORING":"N","GASCOLLECTION":"N","TOWNNAME":"ALBURGH","LATITUDE":44.95976258,"LONGITUDE":-73.26846359},"geometry":{"type":"Point","coordinates":[-73.26846509068118,44.95977166099541]}},{"type":"Feature","properties":{"OBJECTID":678,"PSINUM":"NNL01","SWFACID":"ES030","SITENAME":"R.PARKER LANDFILL","LOCCONF":"L","DATE_FIRST":"1973","DATE_LAST":"1980","ACRES":3,"STATUS":"CLOSED","WQMONITORING":"N","GASCOLLECTION":"N","TOWNNAME":"NORTON","LATITUDE":45.00060169,"LONGITUDE":-71.76398374},"geometry":{"type":"Point","coordinates":[-71.76398473663899,45.00061082638721]}},{"type":"Feature","properties":{"OBJECTID":679,"PSINUM":"NNL02","SWFACID":" ","SITENAME":"NORTON TOWN","LOCCONF":"L","DATE_FIRST":"1948","DATE_LAST":"1975","ACRES":1,"STATUS":"CLOSED","WQMONITORING":"N","GASCOLLECTION":"N","TOWNNAME":"NORTON","LATITUDE":45.00143497,"LONGITUDE":-71.76814993},"geometry":{"type":"Point","coordinates":[-71.76815093191843,45.001444104859644]}},{"type":"Feature","properties":{"OBJECTID":680,"PSINUM":"JBL01","SWFACID":" ","SITENAME":"JAY PEAK, INC.","LOCCONF":"L","DATE_FIRST":"1978","DATE_LAST":"U","ACRES":2,"STATUS":"CLOSED","WQMONITORING":"N","GASCOLLECTION":"N","TOWNNAME":"JAY","LATITUDE":44.9364348,"LONGITUDE":-72.50177963},"geometry":{"type":"Point","coordinates":[-72.50178087110778,44.936443898887326]}},{"type":"Feature","properties":{"OBJECTID":681,"PSINUM":"TRL01","SWFACID":" ","SITENAME":"TROY TOWN","LOCCONF":"L","DATE_FIRST":"1950","DATE_LAST":"1972","ACRES":2,"STATUS":"CLOSED","WQMONITORING":"N","GASCOLLECTION":"N","TOWNNAME":"TROY","LATITUDE":44.99004529,"LONGITUDE":-72.38649764},"geometry":{"type":"Point","coordinates":[-72.38649884575689,44.990054401120325]}},{"type":"Feature","properties":{"OBJECTID":682,"PSINUM":"TRL02","SWFACID":" ","SITENAME":"LEBLANC, D.","LOCCONF":"L","DATE_FIRST":"1965","DATE_LAST":"U","ACRES":1,"STATUS":"CLOSED","WQMONITORING":"N","GASCOLLECTION":"N","TOWNNAME":"TROY","LATITUDE":44.98310112,"LONGITUDE":-72.38677524},"geometry":{"type":"Point","coordinates":[-72.38677644122296,44.98311023344958]}},{"type":"Feature","properties":{"OBJECTID":683,"PSINUM":"IML01","SWFACID":"GI300","SITENAME":"T.LABOMBARD LANDFILL","LOCCONF":"L","DATE_FIRST":"1970","DATE_LAST":"U","ACRES":3,"STATUS":"CLOSED","WQMONITORING":"Y","GASCOLLECTION":"N","TOWNNAME":"ISLE LA MOTTE","LATITUDE":44.87892979,"LONGITUDE":-73.34735502},"geometry":{"type":"Point","coordinates":[-73.3473565336145,44.87893885388183]}},{"type":"Feature","properties":{"OBJECTID":684,"PSINUM":"IML03","SWFACID":" ","SITENAME":"LABOMBARD, T.","LOCCONF":"L","DATE_FIRST":"1970","DATE_LAST":"U","ACRES":3,"STATUS":"CLOSED","WQMONITORING":"N","GASCOLLECTION":"N","TOWNNAME":"ISLE LA MOTTE","LATITUDE":44.88115204,"LONGITUDE":-73.34707714},"geometry":{"type":"Point","coordinates":[-73.34707865834535,44.88116109588294]}},{"type":"Feature","properties":{"OBJECTID":685,"PSINUM":"IML02","SWFACID":"GI300","SITENAME":"ISLE LA MOTTE LANDFILL","LOCCONF":" ","DATE_FIRST":"1970","DATE_LAST":"1992","ACRES":2,"STATUS":"CLOSED","WQMONITORING":"Y","GASCOLLECTION":"N","TOWNNAME":"ISLE LA MOTTE","LATITUDE":44.87719999,"LONGITUDE":-73.34809999},"geometry":{"type":"Point","coordinates":[-73.34810151320767,44.877209053874786]}},{"type":"Feature","properties":{"OBJECTID":686,"PSINUM":"SLL01","SWFACID":" ","SITENAME":"SHELDON TOWN","LOCCONF":"L","DATE_FIRST":"1960","DATE_LAST":"1970","ACRES":2,"STATUS":"CLOSED","WQMONITORING":"N","GASCOLLECTION":"N","TOWNNAME":"SHELDON","LATITUDE":44.88032356,"LONGITUDE":-72.9423568},"geometry":{"type":"Point","coordinates":[-72.94235818243597,44.88033263244445]}},{"type":"Feature","properties":{"OBJECTID":687,"PSINUM":"SLL02","SWFACID":" ","SITENAME":"PARENT, U.","LOCCONF":"L","DATE_FIRST":" ","DATE_LAST":"1972","ACRES":0.25,"STATUS":"CLOSED","WQMONITORING":"N","GASCOLLECTION":"N","TOWNNAME":"SHELDON","LATITUDE":44.89782381,"LONGITUDE":-72.86430071},"geometry":{"type":"Point","coordinates":[-72.86430206934556,44.89783289339144]}},{"type":"Feature","properties":{"OBJECTID":711,"PSINUM":"FXL01","SWFACID":" ","SITENAME":"RAINVILLE, W.","LOCCONF":"L","DATE_FIRST":"1960","DATE_LAST":"1971","ACRES":4,"STATUS":"CLOSED","WQMONITORING":"N","GASCOLLECTION":"N","TOWNNAME":"FAIRFIELD","LATITUDE":44.77282613,"LONGITUDE":-72.88263552},"geometry":{"type":"Point","coordinates":[-72.88263687304222,44.77283518380704]}},{"type":"Feature","properties":{"OBJECTID":712,"PSINUM":"FXL02","SWFACID":" ","SITENAME":"HANNA BROTHERS","LOCCONF":"L","DATE_FIRST":" ","DATE_LAST":"1960","ACRES":0,"STATUS":"CLOSED","WQMONITORING":"N","GASCOLLECTION":"N","TOWNNAME":"FAIRFIELD","LATITUDE":44.79838106,"LONGITUDE":-72.94374933},"geometry":{"type":"Point","coordinates":[-72.9437507102772,44.79839012214239]}},{"type":"Feature","properties":{"OBJECTID":713,"PSINUM":"B1L01","SWFACID":"ES070","SITENAME":"BRIGHTON TOWN LANDFILL","LOCCONF":"L","DATE_FIRST":"1965","DATE_LAST":"U","ACRES":2,"STATUS":"CLOSED","WQMONITORING":"N","GASCOLLECTION":"N","TOWNNAME":"BRIGHTON","LATITUDE":44.77949388,"LONGITUDE":-71.85870542},"geometry":{"type":"Point","coordinates":[-71.85870643330294,44.77950297849543]}},{"type":"Feature","properties":{"OBJECTID":714,"PSINUM":"B1L02","SWFACID":" ","SITENAME":"BRIGHTON SNMBL.","LOCCONF":"L","DATE_FIRST":"1940","DATE_LAST":"1970","ACRES":1,"STATUS":"CLOSED","WQMONITORING":"N","GASCOLLECTION":"N","TOWNNAME":"BRIGHTON","LATITUDE":44.78838272,"LONGITUDE":-71.90953976},"geometry":{"type":"Point","coordinates":[-71.90954079051214,44.788391820392405]}},{"type":"Feature","properties":{"OBJECTID":715,"PSINUM":"BGL02","SWFACID":" ","SITENAME":"GLEASON, M.","LOCCONF":"L","DATE_FIRST":"1930","DATE_LAST":"1970","ACRES":2,"STATUS":"CLOSED","WQMONITORING":"N","GASCOLLECTION":"N","TOWNNAME":"IRASBURG","LATITUDE":44.81671506,"LONGITUDE":-72.20815785},"geometry":{"type":"Point","coordinates":[-72.20815898262359,44.81672414552743]}},{"type":"Feature","properties":{"OBJECTID":716,"PSINUM":"IBL01","SWFACID":"OL310","SITENAME":"IRASBURG LANDFILL","LOCCONF":" ","DATE_FIRST":"1970","DATE_LAST":"1993","ACRES":3,"STATUS":"CLOSED","WQMONITORING":"Y","GASCOLLECTION":"N","TOWNNAME":"IRASBURG","LATITUDE":44.80419999,"LONGITUDE":-72.2678},"geometry":{"type":"Point","coordinates":[-72.26780114785282,44.80420908086324]}},{"type":"Feature","properties":{"OBJECTID":717,"PSINUM":"LOL01","SWFACID":" ","SITENAME":"LOWELL TOWN","LOCCONF":"L","DATE_FIRST":"1900","DATE_LAST":"1976","ACRES":1,"STATUS":"CLOSED","WQMONITORING":"N","GASCOLLECTION":"N","TOWNNAME":"LOWELL","LATITUDE":44.78893707,"LONGITUDE":-72.48844428},"geometry":{"type":"Point","coordinates":[-72.48844550866504,44.78894614053385]}},{"type":"Feature","properties":{"OBJECTID":718,"PSINUM":"BAL01","SWFACID":" ","SITENAME":"BAKERSFIELD TOWN","LOCCONF":"L","DATE_FIRST":"1939","DATE_LAST":"1960","ACRES":1,"STATUS":"CLOSED","WQMONITORING":"N","GASCOLLECTION":"N","TOWNNAME":"BAKERSFIELD","LATITUDE":44.78365933,"LONGITUDE":-72.80513111},"geometry":{"type":"Point","coordinates":[-72.80513243729575,44.78366839501188]}},{"type":"Feature","properties":{"OBJECTID":719,"PSINUM":"BAL02","SWFACID":" ","SITENAME":"BAKERSFIELD TOWN","LOCCONF":"L","DATE_FIRST":"1959","DATE_LAST":"1971","ACRES":3,"STATUS":"CLOSED","WQMONITORING":"N","GASCOLLECTION":"N","TOWNNAME":"BAKERSFIELD","LATITUDE":44.78032595,"LONGITUDE":-72.79651932},"geometry":{"type":"Point","coordinates":[-72.79652065215247,44.78033501725609]}},{"type":"Feature","properties":{"OBJECTID":720,"PSINUM":"WTL02","SWFACID":" ","SITENAME":"FAUSER, D.","LOCCONF":"L","DATE_FIRST":"1930","DATE_LAST":"1965","ACRES":0.5,"STATUS":"CLOSED","WQMONITORING":"N","GASCOLLECTION":"N","TOWNNAME":"WESTMORE","LATITUDE":44.76116099,"LONGITUDE":-72.00843048},"geometry":{"type":"Point","coordinates":[-72.00843154181432,44.761170080159395]}},{"type":"Feature","properties":{"OBJECTID":721,"PSINUM":"WTL01","SWFACID":"OL910","SITENAME":"WESTMORE LANDFILL","LOCCONF":" ","DATE_FIRST":"1965","DATE_LAST":"1993","ACRES":6,"STATUS":"CLOSED","WQMONITORING":"Y","GASCOLLECTION":"N","TOWNNAME":"WESTMORE","LATITUDE":44.70199999,"LONGITUDE":-72.01059999},"geometry":{"type":"Point","coordinates":[-72.01060105421419,44.70200907165629]}},{"type":"Feature","properties":{"OBJECTID":722,"PSINUM":"BHL01","SWFACID":" ","SITENAME":"BELVIDERE TOWN","LOCCONF":"L","DATE_FIRST":"1970","DATE_LAST":"1975","ACRES":0.5,"STATUS":"CLOSED","WQMONITORING":"N","GASCOLLECTION":"N","TOWNNAME":"BELVIDERE","LATITUDE":44.74171545,"LONGITUDE":-72.73290248},"geometry":{"type":"Point","coordinates":[-72.7329037844062,44.74172450833186]}},{"type":"Feature","properties":{"OBJECTID":723,"PSINUM":"GAL01","SWFACID":"FR210","SITENAME":"GEORGIA TOWN LANDFILL","LOCCONF":"L","DATE_FIRST":"1976","DATE_LAST":"U","ACRES":0,"STATUS":"CLOSED","WQMONITORING":"N","GASCOLLECTION":"N","TOWNNAME":"GEORGIA","LATITUDE":44.6958799,"LONGITUDE":-73.13985687},"geometry":{"type":"Point","coordinates":[-73.13985830941797,44.6958889347205]}},{"type":"Feature","properties":{"OBJECTID":724,"PSINUM":"GAL02","SWFACID":" ","SITENAME":"VT. PALLET & LUMBER","LOCCONF":"L","DATE_FIRST":" ","DATE_LAST":"1969","ACRES":0,"STATUS":"CLOSED","WQMONITORING":"N","GASCOLLECTION":"N","TOWNNAME":"GEORGIA","LATITUDE":44.72282374,"LONGITUDE":-73.15263514},"geometry":{"type":"Point","coordinates":[-73.15263658423264,44.72283277543292]}},{"type":"Feature","properties":{"OBJECTID":725,"PSINUM":"GAL03","SWFACID":" ","SITENAME":"JUAIRE, T.","LOCCONF":"L","DATE_FIRST":" ","DATE_LAST":"NU","ACRES":0,"STATUS":"CLOSED","WQMONITORING":"N","GASCOLLECTION":"N","TOWNNAME":"GEORGIA","LATITUDE":44.75032363,"LONGITUDE":-73.13958119},"geometry":{"type":"Point","coordinates":[-73.13958263125153,44.75033266985721]}},{"type":"Feature","properties":{"OBJECTID":726,"PSINUM":"GAL04","SWFACID":" ","SITENAME":"JAMES","LOCCONF":"L","DATE_FIRST":" ","DATE_LAST":"NU","ACRES":0,"STATUS":"CLOSED","WQMONITORING":"N","GASCOLLECTION":"N","TOWNNAME":"GEORGIA","LATITUDE":44.73921276,"LONGITUDE":-73.12930374},"geometry":{"type":"Point","coordinates":[-73.12930517159562,44.739221807347114]}},{"type":"Feature","properties":{"OBJECTID":727,"PSINUM":"ALL01","SWFACID":" ","SITENAME":"LOVELY, P.","LOCCONF":"L","DATE_FIRST":"1930","DATE_LAST":"1970","ACRES":0.75,"STATUS":"CLOSED","WQMONITORING":"N","GASCOLLECTION":"N","TOWNNAME":"ALBANY","LATITUDE":44.76393757,"LONGITUDE":-72.36732927},"geometry":{"type":"Point","coordinates":[-72.3673304510768,44.76394664945739]}},{"type":"Feature","properties":{"OBJECTID":728,"PSINUM":"GPL01","SWFACID":" ","SITENAME":"HANSEN, H.","LOCCONF":"L","DATE_FIRST":"1952","DATE_LAST":"U","ACRES":1.5,"STATUS":"CLOSED","WQMONITORING":"N","GASCOLLECTION":"N","TOWNNAME":"GRAND ISLE","LATITUDE":44.68254427,"LONGITUDE":-73.32513211},"geometry":{"type":"Point","coordinates":[-73.32513360724572,44.68255329627374]}},{"type":"Feature","properties":{"OBJECTID":729,"PSINUM":null,"SWFACID":"GI250","SITENAME":"GRAND ISLE LANDFILL","LOCCONF":" ","DATE_FIRST":" ","DATE_LAST":" ","ACRES":0,"STATUS":"CLOSED","WQMONITORING":"N","GASCOLLECTION":"N","TOWNNAME":"GRAND ISLE","LATITUDE":44.6819,"LONGITUDE":-73.3253},"geometry":{"type":"Point","coordinates":[-73.32530149192154,44.681909020775954]}},{"type":"Feature","properties":{"OBJECTID":730,"PSINUM":"WLL01","SWFACID":" ","SITENAME":"WATERVILLE TOWN","LOCCONF":"L","DATE_FIRST":"1965","DATE_LAST":"1971","ACRES":1,"STATUS":"CLOSED","WQMONITORING":"N","GASCOLLECTION":"N","TOWNNAME":"WATERVILLE","LATITUDE":44.70977153,"LONGITUDE":-72.75901469},"geometry":{"type":"Point","coordinates":[-72.75901599563315,44.70978058600352]}},{"type":"Feature","properties":{"OBJECTID":731,"PSINUM":"FAL01","SWFACID":" ","SITENAME":"MCGUINN, G.","LOCCONF":"L","DATE_FIRST":"1963","DATE_LAST":"1974","ACRES":0,"STATUS":"CLOSED","WQMONITORING":"N","GASCOLLECTION":"N","TOWNNAME":"FAIRFAX","LATITUDE":44.66421624,"LONGITUDE":-72.97902593},"geometry":{"type":"Point","coordinates":[-72.97902731369867,44.66422527969237]}},{"type":"Feature","properties":{"OBJECTID":732,"PSINUM":"NAL01","SWFACID":" ","SITENAME":"ROGERS, R.","LOCCONF":"L","DATE_FIRST":"1960","DATE_LAST":"1977","ACRES":1,"STATUS":"CLOSED","WQMONITORING":"N","GASCOLLECTION":"N","TOWNNAME":"NEWARK","LATITUDE":44.71616202,"LONGITUDE":-71.95259562},"geometry":{"type":"Point","coordinates":[-71.95259666219009,44.71617109653506]}},{"type":"Feature","properties":{"OBJECTID":733,"PSINUM":"FTL01","SWFACID":" ","SITENAME":"FLETCHER TOWN","LOCCONF":"L","DATE_FIRST":" ","DATE_LAST":"U","ACRES":0.25,"STATUS":"CLOSED","WQMONITORING":"N","GASCOLLECTION":"N","TOWNNAME":"FLETCHER","LATITUDE":44.72727146,"LONGITUDE":-72.89346862},"geometry":{"type":"Point","coordinates":[-72.893469979729,44.727280512823015]}},{"type":"Feature","properties":{"OBJECTID":734,"PSINUM":"FTL02","SWFACID":" ","SITENAME":"MEEKER, C.","LOCCONF":"L","DATE_FIRST":" ","DATE_LAST":"U","ACRES":0.5,"STATUS":"CLOSED","WQMONITORING":"N","GASCOLLECTION":"N","TOWNNAME":"FLETCHER","LATITUDE":44.70171605,"LONGITUDE":-72.86902128},"geometry":{"type":"Point","coordinates":[-72.86902262361161,44.701725097958885]}},{"type":"Feature","properties":{"OBJECTID":735,"PSINUM":"BGL01","SWFACID":"OL070","SITENAME":"BARTON TOWN LANDFILL","LOCCONF":"L","DATE_FIRST":"1971","DATE_LAST":"1992","ACRES":10,"STATUS":"CLOSED","WQMONITORING":"Y","GASCOLLECTION":"N","TOWNNAME":"BARTON","LATITUDE":44.77893764,"LONGITUDE":-72.20704683},"geometry":{"type":"Point","coordinates":[-72.2070479608074,44.77894672549559]}},{"type":"Feature","properties":{"OBJECTID":736,"PSINUM":"S7L01","SWFACID":" ","SITENAME":"GRAY, L.","LOCCONF":"L","DATE_FIRST":"1945","DATE_LAST":"1972","ACRES":0.25,"STATUS":"CLOSED","WQMONITORING":"N","GASCOLLECTION":"N","TOWNNAME":"SUTTON","LATITUDE":44.63421923,"LONGITUDE":-72.04787576},"geometry":{"type":"Point","coordinates":[-72.04787683045492,44.634228296268496]}},{"type":"Feature","properties":{"OBJECTID":738,"PSINUM":null,"SWFACID":"CH450","SITENAME":"MILTON LANDFILL","LOCCONF":" ","DATE_FIRST":"1986","DATE_LAST":"1993","ACRES":0,"STATUS":"CLOSED","WQMONITORING":"Y","GASCOLLECTION":"N","TOWNNAME":"MILTON","LATITUDE":44.6286,"LONGITUDE":-73.12939999},"geometry":{"type":"Point","coordinates":[-73.129401421965,44.62860901871725]}},{"type":"Feature","properties":{"OBJECTID":740,"PSINUM":"CCL01","SWFACID":" ","SITENAME":"CAMBRIDGE TOWN","LOCCONF":"L","DATE_FIRST":" ","DATE_LAST":"1969","ACRES":1,"STATUS":"CLOSED","WQMONITORING":"N","GASCOLLECTION":"N","TOWNNAME":"CAMBRIDGE","LATITUDE":44.63310583,"LONGITUDE":-72.8279054},"geometry":{"type":"Point","coordinates":[-72.82790672623328,44.63311486248667]}},{"type":"Feature","properties":{"OBJECTID":741,"PSINUM":"CCL02","SWFACID":" ","SITENAME":"CAMBRIDGE TOWN","LOCCONF":"L","DATE_FIRST":" ","DATE_LAST":"1969","ACRES":1,"STATUS":"CLOSED","WQMONITORING":"N","GASCOLLECTION":"N","TOWNNAME":"CAMBRIDGE","LATITUDE":44.64532771,"LONGITUDE":-72.89985375},"geometry":{"type":"Point","coordinates":[-72.89985510159033,44.64533674739004]}},{"type":"Feature","properties":{"OBJECTID":746,"PSINUM":null,"SWFACID":"GI780","SITENAME":"SOUTH HERO LANDFILL","LOCCONF":" ","DATE_FIRST":"1970","DATE_LAST":"1992","ACRES":0,"STATUS":"CLOSED","WQMONITORING":"Y","GASCOLLECTION":"N","TOWNNAME":"SOUTH HERO","LATITUDE":44.6358,"LONGITUDE":-73.2889},"geometry":{"type":"Point","coordinates":[-73.2889014762185,44.635809014230304]}},{"type":"Feature","properties":{"OBJECTID":747,"PSINUM":"GOL01","SWFACID":" ","SITENAME":"LUND, E.","LOCCONF":"L","DATE_FIRST":"1930","DATE_LAST":"1950","ACRES":0.25,"STATUS":"CLOSED","WQMONITORING":"N","GASCOLLECTION":"N","TOWNNAME":"GRANBY","LATITUDE":44.57394382,"LONGITUDE":-71.71147853},"geometry":{"type":"Point","coordinates":[-71.71147947963212,44.57395288175913]}},{"type":"Feature","properties":{"OBJECTID":748,"PSINUM":"GSL01","SWFACID":" ","SITENAME":"GREENSBORO TOWN","LOCCONF":"L","DATE_FIRST":"1900","DATE_LAST":"1972","ACRES":0.5,"STATUS":"CLOSED","WQMONITORING":"N","GASCOLLECTION":"N","TOWNNAME":"GREENSBORO","LATITUDE":44.57755264,"LONGITUDE":-72.28149301},"geometry":{"type":"Point","coordinates":[-72.28149415336627,44.577561682532654]}},{"type":"Feature","properties":{"OBJECTID":749,"PSINUM":"WQL01","SWFACID":" ","SITENAME":"WESTFORD TOWN","LOCCONF":"L","DATE_FIRST":"1960","DATE_LAST":"1974","ACRES":2,"STATUS":"CLOSED","WQMONITORING":"N","GASCOLLECTION":"N","TOWNNAME":"WESTFORD","LATITUDE":44.64171629,"LONGITUDE":-73.00319195},"geometry":{"type":"Point","coordinates":[-73.0031933335524,44.64172532150305]}},{"type":"Feature","properties":{"OBJECTID":750,"PSINUM":"JHL02","SWFACID":" ","SITENAME":"CONGER, C.","LOCCONF":"L","DATE_FIRST":"1969","DATE_LAST":"1970","ACRES":1,"STATUS":"CLOSED","WQMONITORING":"N","GASCOLLECTION":"N","TOWNNAME":"JOHNSON","LATITUDE":44.62866194,"LONGITUDE":-72.67789765},"geometry":{"type":"Point","coordinates":[-72.6778989287789,44.62867097557584]}},{"type":"Feature","properties":{"OBJECTID":751,"PSINUM":"JHL03","SWFACID":" ","SITENAME":"NADEAU, A.","LOCCONF":"L","DATE_FIRST":"1958","DATE_LAST":"NU","ACRES":1,"STATUS":"CLOSED","WQMONITORING":"N","GASCOLLECTION":"N","TOWNNAME":"JOHNSON","LATITUDE":44.624773,"LONGITUDE":-72.67789759},"geometry":{"type":"Point","coordinates":[-72.67789886468276,44.62478203898574]}},{"type":"Feature","properties":{"OBJECTID":752,"PSINUM":"JHL01","SWFACID":"LA330","SITENAME":"JOHNSON LANDFILL","LOCCONF":" ","DATE_FIRST":"1977","DATE_LAST":"1994","ACRES":0,"STATUS":"CLOSED","WQMONITORING":"Y","GASCOLLECTION":"N","TOWNNAME":"JOHNSON","LATITUDE":44.6569,"LONGITUDE":-72.6183},"geometry":{"type":"Point","coordinates":[-72.61830125489053,44.65690904266073]}},{"type":"Feature","properties":{"OBJECTID":753,"PSINUM":"X5L02","SWFACID":" ","SITENAME":"WOLCOTT TOWN LANDFILL","LOCCONF":"L","DATE_FIRST":"1961","DATE_LAST":"1971","ACRES":1,"STATUS":"CLOSED","WQMONITORING":"N","GASCOLLECTION":"N","TOWNNAME":"WOLCOTT","LATITUDE":44.54283074,"LONGITUDE":-72.45844303},"geometry":{"type":"Point","coordinates":[-72.45844422760071,44.542839770113574]}},{"type":"Feature","properties":{"OBJECTID":754,"PSINUM":"X5L01","SWFACID":"LA920","SITENAME":"WOLCOTT LANDFILL","LOCCONF":" ","DATE_FIRST":"1980","DATE_LAST":"1994","ACRES":2,"STATUS":"CLOSED","WQMONITORING":"Y","GASCOLLECTION":"N","TOWNNAME":"WOLCOTT","LATITUDE":44.55969999,"LONGITUDE":-72.47689999},"geometry":{"type":"Point","coordinates":[-72.47690119975762,44.559709029969596]}},{"type":"Feature","properties":{"OBJECTID":755,"PSINUM":"UHL01","SWFACID":" ","SITENAME":"UNDERHILL TOWN","LOCCONF":"L","DATE_FIRST":"1979","DATE_LAST":"U","ACRES":60,"STATUS":"CLOSED","WQMONITORING":"N","GASCOLLECTION":"N","TOWNNAME":"UNDERHILL","LATITUDE":44.53255132,"LONGITUDE":-72.88262524},"geometry":{"type":"Point","coordinates":[-72.88262657738733,44.53256033764913]}},{"type":"Feature","properties":{"OBJECTID":756,"PSINUM":"UHL02","SWFACID":" ","SITENAME":"SHERA, R.","LOCCONF":"L","DATE_FIRST":"1972","DATE_LAST":"1979","ACRES":10,"STATUS":"CLOSED","WQMONITORING":"N","GASCOLLECTION":"N","TOWNNAME":"UNDERHILL","LATITUDE":44.52477354,"LONGITUDE":-72.88540279},"geometry":{"type":"Point","coordinates":[-72.88540413098748,44.52478255578153]}},{"type":"Feature","properties":{"OBJECTID":757,"PSINUM":"UHL03","SWFACID":" ","SITENAME":"UNDERHILL TOWN","LOCCONF":"L","DATE_FIRST":"1960","DATE_LAST":"1965","ACRES":1,"STATUS":"CLOSED","WQMONITORING":"N","GASCOLLECTION":"N","TOWNNAME":"UNDERHILL","LATITUDE":44.52282916,"LONGITUDE":-72.88568048},"geometry":{"type":"Point","coordinates":[-72.88568181519408,44.52283816939035]}},{"type":"Feature","properties":{"OBJECTID":758,"PSINUM":null,"SWFACID":"CH860","SITENAME":"UNDERHILL LANDFILL","LOCCONF":" ","DATE_FIRST":"1980","DATE_LAST":"1993","ACRES":0,"STATUS":"CLOSED","WQMONITORING":"Y","GASCOLLECTION":"N","TOWNNAME":"UNDERHILL","LATITUDE":44.5297,"LONGITUDE":-72.8847},"geometry":{"type":"Point","coordinates":[-72.88470133403875,44.529709010004204]}},{"type":"Feature","properties":{"OBJECTID":759,"PSINUM":"W1L01","SWFACID":" ","SITENAME":"WHEELOCK TOWN","LOCCONF":"L","DATE_FIRST":"1930","DATE_LAST":"1972","ACRES":0.5,"STATUS":"CLOSED","WQMONITORING":"N","GASCOLLECTION":"N","TOWNNAME":"WHEELOCK","LATITUDE":44.58616467,"LONGITUDE":-72.07982051},"geometry":{"type":"Point","coordinates":[-72.07982158223051,44.58617372153424]}},{"type":"Feature","properties":{"OBJECTID":760,"PSINUM":"GUL01","SWFACID":" ","SITENAME":"SILVER, H.","LOCCONF":"L","DATE_FIRST":"1900","DATE_LAST":"1960","ACRES":0,"STATUS":"CLOSED","WQMONITORING":"N","GASCOLLECTION":"N","TOWNNAME":"GUILDHALL","LATITUDE":44.56366635,"LONGITUDE":-71.59869764},"geometry":{"type":"Point","coordinates":[-71.59869855386061,44.56367541932834]}},{"type":"Feature","properties":{"OBJECTID":761,"PSINUM":"HXL02","SWFACID":" ","SITENAME":"JONES, R.","LOCCONF":"L","DATE_FIRST":"1960","DATE_LAST":"1973","ACRES":1,"STATUS":"CLOSED","WQMONITORING":"N","GASCOLLECTION":"N","TOWNNAME":"HYDE PARK","LATITUDE":44.66255047,"LONGITUDE":-72.58761575},"geometry":{"type":"Point","coordinates":[-72.58761700087771,44.66255951701549]}},{"type":"Feature","properties":{"OBJECTID":762,"PSINUM":"HXL01","SWFACID":" ","SITENAME":"IANNI DEV.","LOCCONF":"L","DATE_FIRST":" ","DATE_LAST":"NU","ACRES":1,"STATUS":"CLOSED","WQMONITORING":"N","GASCOLLECTION":"N","TOWNNAME":"MORRISTOWN","LATITUDE":44.52227509,"LONGITUDE":-72.62789409},"geometry":{"type":"Point","coordinates":[-72.62789534374983,44.522284110613526]}},{"type":"Feature","properties":{"OBJECTID":763,"PSINUM":null,"SWFACID":"LA470","SITENAME":"LAMOILLE LANDFILL & SALVAGE DEPOT","LOCCONF":" ","DATE_FIRST":"1980","DATE_LAST":"1993","ACRES":0,"STATUS":"CLOSED","WQMONITORING":"Y","GASCOLLECTION":"Y","TOWNNAME":"MORRISTOWN","LATITUDE":44.5717,"LONGITUDE":-72.5592},"geometry":{"type":"Point","coordinates":[-72.55920122896123,44.571709029688954]}},{"type":"Feature","properties":{"OBJECTID":764,"PSINUM":"HDL01","SWFACID":"WA020","SITENAME":"R.TOWNS LANDFILL","LOCCONF":"L","DATE_FIRST":"1965","DATE_LAST":"U","ACRES":3,"STATUS":"CLOSED","WQMONITORING":"N","GASCOLLECTION":"N","TOWNNAME":"HARDWICK","LATITUDE":44.48088795,"LONGITUDE":-72.32621582},"geometry":{"type":"Point","coordinates":[-72.32621697161984,44.48089697596466]}},{"type":"Feature","properties":{"OBJECTID":765,"PSINUM":"HDL02","SWFACID":" ","SITENAME":"BROWN CO.","LOCCONF":"L","DATE_FIRST":" ","DATE_LAST":"1970","ACRES":2,"STATUS":"CLOSED","WQMONITORING":"N","GASCOLLECTION":"N","TOWNNAME":"HARDWICK","LATITUDE":44.51588699,"LONGITUDE":-72.37344015},"geometry":{"type":"Point","coordinates":[-72.37344131614591,44.515896024942755]}},{"type":"Feature","properties":{"OBJECTID":766,"PSINUM":"HDL03","SWFACID":" ","SITENAME":"ROWELL BROTHERS","LOCCONF":"L","DATE_FIRST":" ","DATE_LAST":"NU","ACRES":2,"STATUS":"CLOSED","WQMONITORING":"N","GASCOLLECTION":"N","TOWNNAME":"HARDWICK","LATITUDE":44.51366503,"LONGITUDE":-72.37121798},"geometry":{"type":"Point","coordinates":[-72.3712191512968,44.51367405994802]}},{"type":"Feature","properties":{"OBJECTID":767,"PSINUM":"HDL04","SWFACID":" ","SITENAME":"URIE, W.","LOCCONF":"L","DATE_FIRST":"1979","DATE_LAST":"1979","ACRES":0.5,"STATUS":"CLOSED","WQMONITORING":"N","GASCOLLECTION":"N","TOWNNAME":"HARDWICK","LATITUDE":44.51255395,"LONGITUDE":-72.37649573},"geometry":{"type":"Point","coordinates":[-72.37649690234645,44.51256297608559]}},{"type":"Feature","properties":{"OBJECTID":768,"PSINUM":"S1L02","SWFACID":" ","SITENAME":"STOWE TOWN","LOCCONF":"L","DATE_FIRST":"1970","DATE_LAST":"U","ACRES":0,"STATUS":"CLOSED","WQMONITORING":"N","GASCOLLECTION":"N","TOWNNAME":"STOWE","LATITUDE":44.4703315,"LONGITUDE":-72.68622895},"geometry":{"type":"Point","coordinates":[-72.6862302221118,44.47034050833716]}},{"type":"Feature","properties":{"OBJECTID":769,"PSINUM":"S1L06","SWFACID":" ","SITENAME":"UNKNOWN","LOCCONF":"L","DATE_FIRST":" ","DATE_LAST":"U","ACRES":5,"STATUS":"CLOSED","WQMONITORING":"N","GASCOLLECTION":"N","TOWNNAME":"STOWE","LATITUDE":44.52116337,"LONGITUDE":-72.77039964},"geometry":{"type":"Point","coordinates":[-72.77040094384135,44.52117239224854]}},{"type":"Feature","properties":{"OBJECTID":770,"PSINUM":"S1L01","SWFACID":" ","SITENAME":"STOWE TOWN","LOCCONF":"L","DATE_FIRST":"1970","DATE_LAST":"1980","ACRES":26,"STATUS":"CLOSED","WQMONITORING":"N","GASCOLLECTION":"N","TOWNNAME":"STOWE","LATITUDE":44.44033204,"LONGITUDE":-72.7209516},"geometry":{"type":"Point","coordinates":[-72.72095287330997,44.4403410421411]}},{"type":"Feature","properties":{"OBJECTID":771,"PSINUM":"S1L03","SWFACID":" ","SITENAME":"STOWE VILLAGE","LOCCONF":"L","DATE_FIRST":"1920","DATE_LAST":"1970","ACRES":3,"STATUS":"CLOSED","WQMONITORING":"N","GASCOLLECTION":"N","TOWNNAME":"STOWE","LATITUDE":44.47116485,"LONGITUDE":-72.6856731},"geometry":{"type":"Point","coordinates":[-72.68567437280961,44.471173865731885]}},{"type":"Feature","properties":{"OBJECTID":772,"PSINUM":"S1L04","SWFACID":" ","SITENAME":"PERCY, D.","LOCCONF":"L","DATE_FIRST":"1965","DATE_LAST":"U","ACRES":3,"STATUS":"CLOSED","WQMONITORING":"N","GASCOLLECTION":"N","TOWNNAME":"STOWE","LATITUDE":44.47727573,"LONGITUDE":-72.698174},"geometry":{"type":"Point","coordinates":[-72.69817527542382,44.47728473934276]}},{"type":"Feature","properties":{"OBJECTID":773,"PSINUM":"S1L05","SWFACID":" ","SITENAME":"MT. MANSFIELD CO.","LOCCONF":"L","DATE_FIRST":"1962","DATE_LAST":"1972","ACRES":0.25,"STATUS":"CLOSED","WQMONITORING":"N","GASCOLLECTION":"N","TOWNNAME":"STOWE","LATITUDE":44.50560805,"LONGITUDE":-72.76456574},"geometry":{"type":"Point","coordinates":[-72.76456704215502,44.505617062676556]}},{"type":"Feature","properties":{"OBJECTID":774,"PSINUM":"ELL01","SWFACID":" ","SITENAME":"SMITH, G.","LOCCONF":"L","DATE_FIRST":" ","DATE_LAST":"U","ACRES":1,"STATUS":"CLOSED","WQMONITORING":"N","GASCOLLECTION":"N","TOWNNAME":"ELMORE","LATITUDE":44.53171974,"LONGITUDE":-72.53038992},"geometry":{"type":"Point","coordinates":[-72.53039113618489,44.531728766921596]}},{"type":"Feature","properties":{"OBJECTID":775,"PSINUM":"LYL03","SWFACID":" ","SITENAME":"CHESTER, E.","LOCCONF":"L","DATE_FIRST":"1938","DATE_LAST":"1960","ACRES":0.5,"STATUS":"CLOSED","WQMONITORING":"N","GASCOLLECTION":"N","TOWNNAME":"LYNDON","LATITUDE":44.52422247,"LONGITUDE":-72.00092888},"geometry":{"type":"Point","coordinates":[-72.00092992615834,44.524231515934666]}},{"type":"Feature","properties":{"OBJECTID":776,"PSINUM":"LYL04","SWFACID":" ","SITENAME":"PARKER, D.","LOCCONF":"L","DATE_FIRST":"1950","DATE_LAST":"1955","ACRES":0,"STATUS":"CLOSED","WQMONITORING":"N","GASCOLLECTION":"N","TOWNNAME":"LYNDON","LATITUDE":44.51672266,"LONGITUDE":-71.99426211},"geometry":{"type":"Point","coordinates":[-71.99426315402795,44.5167317031575]}},{"type":"Feature","properties":{"OBJECTID":777,"PSINUM":"LYL01","SWFACID":"CA380","SITENAME":"PARKER SUPERFUND SITE","LOCCONF":" ","DATE_FIRST":"1972","DATE_LAST":"U","ACRES":7,"STATUS":"CLOSED","WQMONITORING":"Y","GASCOLLECTION":"N","TOWNNAME":"LYNDON","LATITUDE":44.51889999,"LONGITUDE":-71.9903},"geometry":{"type":"Point","coordinates":[-71.99030103508812,44.51890903994681]}},{"type":"Feature","properties":{"OBJECTID":778,"PSINUM":"LYL02","SWFACID":"CA390","SITENAME":"PARKER DARLING HILL LANDFILL","LOCCONF":" ","DATE_FIRST":"1955","DATE_LAST":"1969","ACRES":5,"STATUS":"CLOSED","WQMONITORING":"N","GASCOLLECTION":"N","TOWNNAME":"LYNDON","LATITUDE":44.5544,"LONGITUDE":-71.98469999},"geometry":{"type":"Point","coordinates":[-71.98470103539478,44.5544090466085]}},{"type":"Feature","properties":{"OBJECTID":779,"PSINUM":"SDL04","SWFACID":" ","SITENAME":"ELLIOT, E.","LOCCONF":"L","DATE_FIRST":"1979","DATE_LAST":"U","ACRES":0.00999999,"STATUS":"CLOSED","WQMONITORING":"N","GASCOLLECTION":"N","TOWNNAME":"WALDEN","LATITUDE":44.50088822,"LONGITUDE":-72.17593422},"geometry":{"type":"Point","coordinates":[-72.17593532082167,44.50089725281189]}},{"type":"Feature","properties":{"OBJECTID":780,"PSINUM":"WBL01","SWFACID":" ","SITENAME":"FARROW, J.","LOCCONF":"L","DATE_FIRST":"1930","DATE_LAST":"1972","ACRES":1,"STATUS":"CLOSED","WQMONITORING":"N","GASCOLLECTION":"N","TOWNNAME":"WALDEN","LATITUDE":44.47644394,"LONGITUDE":-72.24121322},"geometry":{"type":"Point","coordinates":[-72.24121433947315,44.476452970185846]}},{"type":"Feature","properties":{"OBJECTID":781,"PSINUM":"LXL01","SWFACID":"ES390","SITENAME":"LUNENBURG LANDFILL","LOCCONF":" ","DATE_FIRST":"1977","DATE_LAST":"U","ACRES":3,"STATUS":"CLOSED","WQMONITORING":"N","GASCOLLECTION":"N","TOWNNAME":"LUNENBURG","LATITUDE":44.46219999,"LONGITUDE":-71.66479999},"geometry":{"type":"Point","coordinates":[-71.66480092230316,44.46220904111297]}},{"type":"Feature","properties":{"OBJECTID":782,"PSINUM":"","SWFACID":"ES690","SITENAME":"DALTON HYDRO","LOCCONF":"H","DATE_FIRST":"U","DATE_LAST":"1992","ACRES":0,"STATUS":"CLOSED","WQMONITORING":"N","GASCOLLECTION":"N","TOWNNAME":"LUNENBURG","LATITUDE":44.41297697,"LONGITUDE":-71.7103755},"geometry":{"type":"Point","coordinates":[-71.71037644342107,44.412986008502244]}},{"type":"Feature","properties":{"OBJECTID":783,"PSINUM":"JEL02","SWFACID":" ","SITENAME":"MARTIN, P.","LOCCONF":"L","DATE_FIRST":"1960","DATE_LAST":"1969","ACRES":2,"STATUS":"CLOSED","WQMONITORING":"N","GASCOLLECTION":"N","TOWNNAME":"JERICHO","LATITUDE":44.45338538,"LONGITUDE":-72.95901332},"geometry":{"type":"Point","coordinates":[-72.95901468099815,44.45339437789291]}},{"type":"Feature","properties":{"OBJECTID":784,"PSINUM":"JEL03","SWFACID":" ","SITENAME":"TARBOX, L.","LOCCONF":"L","DATE_FIRST":"1940","DATE_LAST":"1960","ACRES":0.25,"STATUS":"CLOSED","WQMONITORING":"N","GASCOLLECTION":"N","TOWNNAME":"JERICHO","LATITUDE":44.48338452,"LONGITUDE":-72.98290323},"geometry":{"type":"Point","coordinates":[-72.98290459535365,44.48339352038328]}},{"type":"Feature","properties":{"OBJECTID":785,"PSINUM":"JEL01","SWFACID":"CH330","SITENAME":"JERICHO LANDFILL","LOCCONF":" ","DATE_FIRST":"1970","DATE_LAST":"1993","ACRES":2,"STATUS":"CLOSED","WQMONITORING":"Y","GASCOLLECTION":"N","TOWNNAME":"JERICHO","LATITUDE":44.45109999,"LONGITUDE":-72.97939999},"geometry":{"type":"Point","coordinates":[-72.97940135928648,44.45110899214829]}},{"type":"Feature","properties":{"OBJECTID":786,"PSINUM":"SDL01","SWFACID":" ","SITENAME":"STATE OF VERMONT","LOCCONF":"L","DATE_FIRST":"1960","DATE_LAST":"1972","ACRES":2,"STATUS":"CLOSED","WQMONITORING":"N","GASCOLLECTION":"N","TOWNNAME":"ST. JOHNSBURY","LATITUDE":44.40978047,"LONGITUDE":-72.02370567},"geometry":{"type":"Point","coordinates":[-72.02370671758808,44.409789495926105]}},{"type":"Feature","properties":{"OBJECTID":787,"PSINUM":"SDL02","SWFACID":" ","SITENAME":"STATE OF VERMONT","LOCCONF":"L","DATE_FIRST":"1959","DATE_LAST":"1973","ACRES":1,"STATUS":"CLOSED","WQMONITORING":"N","GASCOLLECTION":"N","TOWNNAME":"ST. JOHNSBURY","LATITUDE":44.40505833,"LONGITUDE":-72.02342779},"geometry":{"type":"Point","coordinates":[-72.0234288312336,44.405067354251436]}},{"type":"Feature","properties":{"OBJECTID":788,"PSINUM":"SDL03","SWFACID":" ","SITENAME":"ST. JOHNSBURY TOWN","LOCCONF":"L","DATE_FIRST":"1900","DATE_LAST":"1930","ACRES":2,"STATUS":"CLOSED","WQMONITORING":"N","GASCOLLECTION":"N","TOWNNAME":"ST. JOHNSBURY","LATITUDE":44.45672397,"LONGITUDE":-72.01065077},"geometry":{"type":"Point","coordinates":[-72.01065180947165,44.45673299898453]}},{"type":"Feature","properties":{"OBJECTID":789,"PSINUM":"SDL05","SWFACID":" ","SITENAME":"STATE OF VERMONT","LOCCONF":"L","DATE_FIRST":"1970","DATE_LAST":"U","ACRES":2,"STATUS":"CLOSED","WQMONITORING":"N","GASCOLLECTION":"N","TOWNNAME":"ST. JOHNSBURY","LATITUDE":44.40450287,"LONGITUDE":-72.02120555},"geometry":{"type":"Point","coordinates":[-72.02120659112309,44.404511898424516]}},{"type":"Feature","properties":{"OBJECTID":790,"PSINUM":"SDL06","SWFACID":" ","SITENAME":"MURPHY, B.","LOCCONF":"L","DATE_FIRST":"1900","DATE_LAST":"1930","ACRES":1,"STATUS":"CLOSED","WQMONITORING":"N","GASCOLLECTION":"N","TOWNNAME":"ST. JOHNSBURY","LATITUDE":44.4183913,"LONGITUDE":-72.0287064},"geometry":{"type":"Point","coordinates":[-72.02870744571385,44.41840032833262]}},{"type":"Feature","properties":{"OBJECTID":791,"PSINUM":"COL01","SWFACID":" ","SITENAME":"CONCORD TOWN","LOCCONF":"L","DATE_FIRST":"1930","DATE_LAST":"U","ACRES":1,"STATUS":"CLOSED","WQMONITORING":"N","GASCOLLECTION":"N","TOWNNAME":"CONCORD","LATITUDE":44.44700221,"LONGITUDE":-71.87759238},"geometry":{"type":"Point","coordinates":[-71.87759338122865,44.44701124883907]}},{"type":"Feature","properties":{"OBJECTID":792,"PSINUM":"X6L01","SWFACID":" ","SITENAME":"WOODBURY TOWN","LOCCONF":"L","DATE_FIRST":" ","DATE_LAST":"1971","ACRES":2,"STATUS":"CLOSED","WQMONITORING":"N","GASCOLLECTION":"N","TOWNNAME":"WOODBURY","LATITUDE":44.41950045,"LONGITUDE":-72.42677352},"geometry":{"type":"Point","coordinates":[-72.42677469568525,44.41950946114159]}},{"type":"Feature","properties":{"OBJECTID":793,"PSINUM":"X9L01","SWFACID":" ","SITENAME":"WORCESTER TOWN","LOCCONF":"L","DATE_FIRST":"1966","DATE_LAST":"1976","ACRES":3,"STATUS":"CLOSED","WQMONITORING":"N","GASCOLLECTION":"N","TOWNNAME":"WORCESTER","LATITUDE":44.4128335,"LONGITUDE":-72.54927797},"geometry":{"type":"Point","coordinates":[-72.54927918820894,44.41284250745949]}},{"type":"Feature","properties":{"OBJECTID":794,"PSINUM":"BOL01","SWFACID":" ","SITENAME":"WHEELER, X.","LOCCONF":"L","DATE_FIRST":"1965","DATE_LAST":"1973","ACRES":1,"STATUS":"CLOSED","WQMONITORING":"N","GASCOLLECTION":"N","TOWNNAME":"BOLTON","LATITUDE":44.42866406,"LONGITUDE":-72.90428907},"geometry":{"type":"Point","coordinates":[-72.90429040689295,44.42867306062266]}},{"type":"Feature","properties":{"OBJECTID":795,"PSINUM":"BOL02","SWFACID":" ","SITENAME":"FULLER, W.","LOCCONF":"L","DATE_FIRST":" ","DATE_LAST":"NU","ACRES":0.02999999,"STATUS":"CLOSED","WQMONITORING":"N","GASCOLLECTION":"N","TOWNNAME":"BOLTON","LATITUDE":44.37116564,"LONGITUDE":-72.88262102},"geometry":{"type":"Point","coordinates":[-72.88262234670674,44.37117462629051]}},{"type":"Feature","properties":{"OBJECTID":796,"PSINUM":"CBL01","SWFACID":" ","SITENAME":"CALAIS TOWN","LOCCONF":"L","DATE_FIRST":"1953","DATE_LAST":"1971","ACRES":1,"STATUS":"CLOSED","WQMONITORING":"N","GASCOLLECTION":"N","TOWNNAME":"CALAIS","LATITUDE":44.36589068,"LONGITUDE":-72.43649501},"geometry":{"type":"Point","coordinates":[-72.43649618708722,44.36589968087321]}},{"type":"Feature","properties":{"OBJECTID":797,"PSINUM":"BDL01","SWFACID":"CA070","SITENAME":"BARNET TOWN LANDFILL","LOCCONF":"L","DATE_FIRST":"1969","DATE_LAST":"1992","ACRES":10,"STATUS":"CLOSED","WQMONITORING":"Y","GASCOLLECTION":"N","TOWNNAME":"BARNET","LATITUDE":44.36339263,"LONGITUDE":-72.03981719},"geometry":{"type":"Point","coordinates":[-72.03981823784521,44.36340164974542]}},{"type":"Feature","properties":{"OBJECTID":798,"PSINUM":"BDL02","SWFACID":" ","SITENAME":"BARNET TOWN","LOCCONF":"L","DATE_FIRST":"1930","DATE_LAST":"1960","ACRES":1,"STATUS":"CLOSED","WQMONITORING":"N","GASCOLLECTION":"N","TOWNNAME":"BARNET","LATITUDE":44.37117022,"LONGITUDE":-72.02814973},"geometry":{"type":"Point","coordinates":[-72.02815077748072,44.37117923843527]}},{"type":"Feature","properties":{"OBJECTID":799,"PSINUM":"BDL03","SWFACID":" ","SITENAME":"BIMSON, C.","LOCCONF":"L","DATE_FIRST":"1960","DATE_LAST":"1969","ACRES":0,"STATUS":"CLOSED","WQMONITORING":"N","GASCOLLECTION":"N","TOWNNAME":"BARNET","LATITUDE":44.29117184,"LONGITUDE":-72.06009392},"geometry":{"type":"Point","coordinates":[-72.06009496328187,44.291180846414555]}},{"type":"Feature","properties":{"OBJECTID":800,"PSINUM":"PCL01","SWFACID":" ","SITENAME":"GOSLANT, K.","LOCCONF":"L","DATE_FIRST":"1950","DATE_LAST":"1980","ACRES":2,"STATUS":"CLOSED","WQMONITORING":"N","GASCOLLECTION":"N","TOWNNAME":"PEACHAM","LATITUDE":44.34978097,"LONGITUDE":-72.16898631},"geometry":{"type":"Point","coordinates":[-72.16898739809409,44.349789980552494]}},{"type":"Feature","properties":{"OBJECTID":801,"PSINUM":"PCL02","SWFACID":" ","SITENAME":"WHITE","LOCCONF":"L","DATE_FIRST":"1930","DATE_LAST":"1976","ACRES":2,"STATUS":"CLOSED","WQMONITORING":"N","GASCOLLECTION":"N","TOWNNAME":"PEACHAM","LATITUDE":44.34672563,"LONGITUDE":-72.16370783},"geometry":{"type":"Point","coordinates":[-72.16370891209431,44.34673464073048]}},{"type":"Feature","properties":{"OBJECTID":802,"PSINUM":null,"SWFACID":"CA570","SITENAME":"PEACHAM LANDFILL","LOCCONF":" ","DATE_FIRST":" ","DATE_LAST":" ","ACRES":0,"STATUS":"CLOSED","WQMONITORING":"N","GASCOLLECTION":"N","TOWNNAME":"PEACHAM","LATITUDE":44.34970637,"LONGITUDE":-72.16937411},"geometry":{"type":"Point","coordinates":[-72.16937519801048,44.349715375916524]}},{"type":"Feature","properties":{"OBJECTID":803,"PSINUM":"C1L02","SWFACID":" ","SITENAME":"UNKNOWN","LOCCONF":"L","DATE_FIRST":" ","DATE_LAST":"NU","ACRES":0,"STATUS":"CLOSED","WQMONITORING":"N","GASCOLLECTION":"N","TOWNNAME":"CHARLOTTE","LATITUDE":44.29005243,"LONGITUDE":-73.25429128},"geometry":{"type":"Point","coordinates":[-73.25429272800086,44.29006138422699]}},{"type":"Feature","properties":{"OBJECTID":836,"PSINUM":null,"SWFACID":"OG150","SITENAME":"HAYWARD WASTE SYSTEMS, INC. LANDFILL","LOCCONF":" ","DATE_FIRST":"1981","DATE_LAST":"1992","ACRES":0,"STATUS":"CLOSED","WQMONITORING":"Y","GASCOLLECTION":"N","TOWNNAME":"CORINTH","LATITUDE":44.04279999,"LONGITUDE":-72.2058},"geometry":{"type":"Point","coordinates":[-72.20580107491762,44.04280894667191]}},{"type":"Feature","properties":{"OBJECTID":837,"PSINUM":"CPL01","SWFACID":"OG160","SITENAME":"CORINTH LANDFILL","LOCCONF":" ","DATE_FIRST":" ","DATE_LAST":" ","ACRES":0,"STATUS":"CLOSED","WQMONITORING":"N","GASCOLLECTION":"N","TOWNNAME":"CORINTH","LATITUDE":44.0519,"LONGITUDE":-72.25139999},"geometry":{"type":"Point","coordinates":[-72.25140109024346,44.05190894727064]}},{"type":"Feature","properties":{"OBJECTID":838,"PSINUM":"CJL02","SWFACID":" ","SITENAME":"HAMMOND, C.","LOCCONF":"L","DATE_FIRST":"1930","DATE_LAST":"1959","ACRES":1,"STATUS":"CLOSED","WQMONITORING":"N","GASCOLLECTION":"N","TOWNNAME":"CHELSEA","LATITUDE":43.97117713,"LONGITUDE":-72.45398809},"geometry":{"type":"Point","coordinates":[-72.45398924935796,43.97118606387614]}},{"type":"Feature","properties":{"OBJECTID":839,"PSINUM":"CJL01","SWFACID":"OG130","SITENAME":"CHELSEA LANDFILL","LOCCONF":" ","DATE_FIRST":"1970","DATE_LAST":"1992","ACRES":0,"STATUS":"CLOSED","WQMONITORING":"Y","GASCOLLECTION":"N","TOWNNAME":"CHELSEA","LATITUDE":44.01779999,"LONGITUDE":-72.44279999},"geometry":{"type":"Point","coordinates":[-72.44280115099004,44.01780893376328]}},{"type":"Feature","properties":{"OBJECTID":840,"PSINUM":"MGL01","SWFACID":" ","SITENAME":"MIDDLEBURY TOWN","LOCCONF":"L","DATE_FIRST":"1938","DATE_LAST":"1971","ACRES":0,"STATUS":"CLOSED","WQMONITORING":"N","GASCOLLECTION":"N","TOWNNAME":"MIDDLEBURY","LATITUDE":44.02172572,"LONGITUDE":-73.16956221},"geometry":{"type":"Point","coordinates":[-73.16956360536959,44.0217346317181]}},{"type":"Feature","properties":{"OBJECTID":841,"PSINUM":"RIL01","SWFACID":" ","SITENAME":"MIDDLEBURY C.","LOCCONF":"L","DATE_FIRST":"1900","DATE_LAST":"1975","ACRES":1.5,"STATUS":"CLOSED","WQMONITORING":"N","GASCOLLECTION":"N","TOWNNAME":"RIPTON","LATITUDE":43.94867388,"LONGITUDE":-72.98539093},"geometry":{"type":"Point","coordinates":[-72.98539226262155,43.948682788739774]}},{"type":"Feature","properties":{"OBJECTID":842,"PSINUM":"BXL01","SWFACID":"AD060","SITENAME":"BRIDPORT TOWN LANDFILL","LOCCONF":"L","DATE_FIRST":"1945","DATE_LAST":"U","ACRES":30,"STATUS":"CLOSED","WQMONITORING":"N","GASCOLLECTION":"N","TOWNNAME":"BRIDPORT","LATITUDE":43.95978061,"LONGITUDE":-73.32373086},"geometry":{"type":"Point","coordinates":[-73.32373230115319,43.959789509791456]}},{"type":"Feature","properties":{"OBJECTID":843,"PSINUM":"BXL02","SWFACID":" ","SITENAME":"DEARING, H.","LOCCONF":"L","DATE_FIRST":"1979","DATE_LAST":"1979","ACRES":0,"STATUS":"CLOSED","WQMONITORING":"N","GASCOLLECTION":"N","TOWNNAME":"BRIDPORT","LATITUDE":43.99755834,"LONGITUDE":-73.27123031},"geometry":{"type":"Point","coordinates":[-73.27123173996792,43.99756724082979]}},{"type":"Feature","properties":{"OBJECTID":844,"PSINUM":"VRL01","SWFACID":" ","SITENAME":"NELSON, E.","LOCCONF":"L","DATE_FIRST":"1959","DATE_LAST":"1974","ACRES":1,"STATUS":"CLOSED","WQMONITORING":"N","GASCOLLECTION":"N","TOWNNAME":"VERSHIRE","LATITUDE":43.97562211,"LONGITUDE":-72.32009554},"geometry":{"type":"Point","coordinates":[-72.3200966504556,43.97563105017395]}},{"type":"Feature","properties":{"OBJECTID":845,"PSINUM":"FLL01","SWFACID":" ","SITENAME":"FAIRLEE TOWN","LOCCONF":"L","DATE_FIRST":" ","DATE_LAST":" ","ACRES":0,"STATUS":"CLOSED","WQMONITORING":"N","GASCOLLECTION":"N","TOWNNAME":"FAIRLEE","LATITUDE":43.90117941,"LONGITUDE":-72.15425674},"geometry":{"type":"Point","coordinates":[-72.15425779786216,43.90118834050949]}},{"type":"Feature","properties":{"OBJECTID":846,"PSINUM":"FLL02","SWFACID":" ","SITENAME":"COFFINS, JR.","LOCCONF":"L","DATE_FIRST":"1955","DATE_LAST":"U","ACRES":0,"STATUS":"CLOSED","WQMONITORING":"N","GASCOLLECTION":"N","TOWNNAME":"FAIRLEE","LATITUDE":43.90562375,"LONGITUDE":-72.14675642},"geometry":{"type":"Point","coordinates":[-72.14675747549099,43.905632683572954]}},{"type":"Feature","properties":{"OBJECTID":856,"PSINUM":"RML01","SWFACID":"WS060","SITENAME":"ROYALTON TOWN LANDFILL","LOCCONF":"L","DATE_FIRST":"1970","DATE_LAST":"U","ACRES":5,"STATUS":"CLOSED","WQMONITORING":"Y","GASCOLLECTION":"N","TOWNNAME":"ROYALTON","LATITUDE":43.83478914,"LONGITUDE":-72.57871099},"geometry":{"type":"Point","coordinates":[-72.578712181405,43.834798042920006]}},{"type":"Feature","properties":{"OBJECTID":857,"PSINUM":"OWL01","SWFACID":" ","SITENAME":"PARENT, B.","LOCCONF":"L","DATE_FIRST":" ","DATE_LAST":"1971","ACRES":1,"STATUS":"CLOSED","WQMONITORING":"N","GASCOLLECTION":"N","TOWNNAME":"ORWELL","LATITUDE":43.80756117,"LONGITUDE":-73.32011622},"geometry":{"type":"Point","coordinates":[-73.32011765063221,43.807570042214124]}},{"type":"Feature","properties":{"OBJECTID":858,"PSINUM":"OWL02","SWFACID":" ","SITENAME":" ","LOCCONF":"L","DATE_FIRST":"1969","DATE_LAST":"1970","ACRES":0,"STATUS":"CLOSED","WQMONITORING":"N","GASCOLLECTION":"N","TOWNNAME":"ORWELL","LATITUDE":43.81339511,"LONGITUDE":-73.23400341},"geometry":{"type":"Point","coordinates":[-73.23400481928816,43.813403981571795]}},{"type":"Feature","properties":{"OBJECTID":859,"PSINUM":"PEL01","SWFACID":" ","SITENAME":"PITTSFIELD TOWN","LOCCONF":"L","DATE_FIRST":"1974","DATE_LAST":"NU","ACRES":2,"STATUS":"CLOSED","WQMONITORING":"N","GASCOLLECTION":"N","TOWNNAME":"PITTSFIELD","LATITUDE":43.77978835,"LONGITUDE":-72.79954923},"geometry":{"type":"Point","coordinates":[-72.79955048762668,43.77979723748504]}},{"type":"Feature","properties":{"OBJECTID":909,"PSINUM":"BTL01","SWFACID":"WH080","SITENAME":"WINDHAM COUNTY SWMD LANDFILL","LOCCONF":" ","DATE_FIRST":"1970","DATE_LAST":"1995","ACRES":30,"STATUS":"CLOSED","WQMONITORING":"Y","GASCOLLECTION":"Y","TOWNNAME":"BRATTLEBORO","LATITUDE":42.89308229,"LONGITUDE":-72.53951329},"geometry":{"type":"Point","coordinates":[-72.5395144029396,42.89309101695419]}},{"type":"Feature","properties":{"OBJECTID":910,"PSINUM":"RDL01","SWFACID":"BN610","SITENAME":"READSBORO TOWN LANDFILL","LOCCONF":"L","DATE_FIRST":"1957","DATE_LAST":"U","ACRES":1,"STATUS":"CLOSED","WQMONITORING":"N","GASCOLLECTION":"N","TOWNNAME":"READSBORO","LATITUDE":42.7709155,"LONGITUDE":-72.93676597},"geometry":{"type":"Point","coordinates":[-72.93676720275519,42.77092419116848]}},{"type":"Feature","properties":{"OBJECTID":911,"PSINUM":"PQL01","SWFACID":" ","SITENAME":"GREEN MTN. D.T.","LOCCONF":"L","DATE_FIRST":" ","DATE_LAST":"U","ACRES":10,"STATUS":"CLOSED","WQMONITORING":"N","GASCOLLECTION":"N","TOWNNAME":"POWNAL","LATITUDE":42.78646794,"LONGITUDE":-73.2551089},"geometry":{"type":"Point","coordinates":[-73.25511024582717,42.78647662416079]}},{"type":"Feature","properties":{"OBJECTID":912,"PSINUM":"PQL02","SWFACID":"BN580","SITENAME":"POWNAL TOWN LANDFILL","LOCCONF":"L","DATE_FIRST":"1974","DATE_LAST":"1993","ACRES":7.5,"STATUS":"CLOSED","WQMONITORING":"Y","GASCOLLECTION":"N","TOWNNAME":"POWNAL","LATITUDE":42.81785729,"LONGITUDE":-73.18344023},"geometry":{"type":"Point","coordinates":[-73.18344154585586,42.8178659851131]}},{"type":"Feature","properties":{"OBJECTID":913,"PSINUM":"PQL03","SWFACID":" ","SITENAME":"SARKIS, J.","LOCCONF":"L","DATE_FIRST":" ","DATE_LAST":"1974","ACRES":10,"STATUS":"CLOSED","WQMONITORING":"N","GASCOLLECTION":"N","TOWNNAME":"POWNAL","LATITUDE":42.79174564,"LONGITUDE":-73.26260881},"geometry":{"type":"Point","coordinates":[-73.26261014953631,42.79175432689195]}},{"type":"Feature","properties":{"OBJECTID":914,"PSINUM":" ","SWFACID":"BN590","SITENAME":"POWNAL TANNERY LINED LANDFILL","LOCCONF":" ","DATE_FIRST":"1982","DATE_LAST":"2000","ACRES":0,"STATUS":"CLOSED","WQMONITORING":"Y","GASCOLLECTION":"N","TOWNNAME":"POWNAL","LATITUDE":42.79382238,"LONGITUDE":-73.26234247},"geometry":{"type":"Point","coordinates":[-73.26234381659778,42.793831061707486]}},{"type":"Feature","properties":{"OBJECTID":915,"PSINUM":"W3L01","SWFACID":"WH921","SITENAME":"WHITINGHAM TOWN LANDFILL","LOCCONF":"L","DATE_FIRST":"1979","DATE_LAST":"U","ACRES":8,"STATUS":"CLOSED","WQMONITORING":"N","GASCOLLECTION":"N","TOWNNAME":"WHITINGHAM","LATITUDE":42.78786003,"LONGITUDE":-72.8364856},"geometry":{"type":"Point","coordinates":[-72.83648680377601,42.787868732398564]}},{"type":"Feature","properties":{"OBJECTID":916,"PSINUM":"HAL01","SWFACID":"WH280","SITENAME":"HALIFAX TOWN LANDFILL","LOCCONF":"L","DATE_FIRST":" ","DATE_LAST":"U","ACRES":7,"STATUS":"CLOSED","WQMONITORING":"Y","GASCOLLECTION":"N","TOWNNAME":"HALIFAX","LATITUDE":42.76369387,"LONGITUDE":-72.76759441},"geometry":{"type":"Point","coordinates":[-72.76759559046482,42.763702570748]}},{"type":"Feature","properties":{"OBJECTID":917,"PSINUM":"GXL01","SWFACID":" ","SITENAME":"LAZELLE","LOCCONF":"L","DATE_FIRST":" ","DATE_LAST":"1966","ACRES":60,"STATUS":"CLOSED","WQMONITORING":"N","GASCOLLECTION":"N","TOWNNAME":"GUILFORD","LATITUDE":42.81341559,"LONGITUDE":-72.57759049},"geometry":{"type":"Point","coordinates":[-72.57759160947332,42.81342430116199]}},{"type":"Feature","properties":{"OBJECTID":918,"PSINUM":null,"SWFACID":"FR470","SITENAME":"ST. ONGE/MONTGOMERY LANDFILL","LOCCONF":" ","DATE_FIRST":" ","DATE_LAST":" ","ACRES":0,"STATUS":"CLOSED","WQMONITORING":"N","GASCOLLECTION":"N","TOWNNAME":"MONTGOMERY","LATITUDE":44.9025,"LONGITUDE":-72.63309999},"geometry":{"type":"Point","coordinates":[-72.63310127612128,44.90250908523712]}},{"type":"Feature","properties":{"OBJECTID":919,"PSINUM":"EDL01","SWFACID":" ","SITENAME":"EDEN TOWN","LOCCONF":"L","DATE_FIRST":"1957","DATE_LAST":"U","ACRES":1,"STATUS":"CLOSED","WQMONITORING":"N","GASCOLLECTION":"N","TOWNNAME":"EDEN","LATITUDE":44.70699407,"LONGITUDE":-72.54150231},"geometry":{"type":"Point","coordinates":[-72.5415035460999,44.7070031301212]}},{"type":"Feature","properties":{"OBJECTID":920,"PSINUM":"EDL03","SWFACID":" ","SITENAME":"EDEN TOWN","LOCCONF":"L","DATE_FIRST":"1956","DATE_LAST":"1957","ACRES":1,"STATUS":"CLOSED","WQMONITORING":"N","GASCOLLECTION":"N","TOWNNAME":"EDEN","LATITUDE":44.74782661,"LONGITUDE":-72.53455731},"geometry":{"type":"Point","coordinates":[-72.53455854706803,44.747835678336685]}},{"type":"Feature","properties":{"OBJECTID":921,"PSINUM":"EDL02","SWFACID":"LA210","SITENAME":"EDEN LANDFILL","LOCCONF":" ","DATE_FIRST":"1969","DATE_LAST":"1993","ACRES":17,"STATUS":"CLOSED","WQMONITORING":"Y","GASCOLLECTION":"N","TOWNNAME":"EDEN","LATITUDE":44.70279999,"LONGITUDE":-72.5231},"geometry":{"type":"Point","coordinates":[-72.5231012258921,44.70280905350992]}},{"type":"Feature","properties":{"OBJECTID":922,"PSINUM":"MAL01","SWFACID":" ","SITENAME":"ST. REGIS PAPER","LOCCONF":"L","DATE_FIRST":"1970","DATE_LAST":"1978","ACRES":1,"STATUS":"CLOSED","WQMONITORING":"N","GASCOLLECTION":"N","TOWNNAME":"MAIDSTONE","LATITUDE":44.68394038,"LONGITUDE":-71.6384217},"geometry":{"type":"Point","coordinates":[-71.63842263523554,44.68394947084015]}},{"type":"Feature","properties":{"OBJECTID":923,"PSINUM":"CNL01","SWFACID":"CH170","SITENAME":"RATHE BROTHERS LANDFILL","LOCCONF":"L","DATE_FIRST":"1966","DATE_LAST":"1993","ACRES":8,"STATUS":"CLOSED","WQMONITORING":"Y","GASCOLLECTION":"N","TOWNNAME":"COLCHESTER","LATITUDE":44.5175487,"LONGITUDE":-73.18846153},"geometry":{"type":"Point","coordinates":[-73.18846296558313,44.5175577031789]}},{"type":"Feature","properties":{"OBJECTID":924,"PSINUM":"CNL02","SWFACID":" ","SITENAME":"","LOCCONF":"L","DATE_FIRST":" ","DATE_LAST":"1965","ACRES":2,"STATUS":"CLOSED","WQMONITORING":"N","GASCOLLECTION":"N","TOWNNAME":"COLCHESTER","LATITUDE":44.54921503,"LONGITUDE":-73.16818476},"geometry":{"type":"Point","coordinates":[-73.16818619193495,44.54922403978989]}},{"type":"Feature","properties":{"OBJECTID":925,"PSINUM":"DBL01","SWFACID":" ","SITENAME":"DANVILLE TOWN","LOCCONF":"L","DATE_FIRST":"1965","DATE_LAST":"1976","ACRES":0.5,"STATUS":"CLOSED","WQMONITORING":"N","GASCOLLECTION":"N","TOWNNAME":"DANVILLE","LATITUDE":44.44200113,"LONGITUDE":-72.13704312},"geometry":{"type":"Point","coordinates":[-72.13704420169884,44.44201015344159]}},{"type":"Feature","properties":{"OBJECTID":926,"PSINUM":"DBL02","SWFACID":" ","SITENAME":"GADAPEE, W.","LOCCONF":"L","DATE_FIRST":"1930","DATE_LAST":"1960","ACRES":3,"STATUS":"CLOSED","WQMONITORING":"N","GASCOLLECTION":"N","TOWNNAME":"DANVILLE","LATITUDE":44.44061226,"LONGITUDE":-72.14343146},"geometry":{"type":"Point","coordinates":[-72.14343254542275,44.44062128604993]}},{"type":"Feature","properties":{"OBJECTID":927,"PSINUM":"DBL03","SWFACID":" ","SITENAME":"SYKES, J.","LOCCONF":"L","DATE_FIRST":"1930","DATE_LAST":"1975","ACRES":1,"STATUS":"CLOSED","WQMONITORING":"N","GASCOLLECTION":"N","TOWNNAME":"DANVILLE","LATITUDE":44.4556121,"LONGITUDE":-72.12732079},"geometry":{"type":"Point","coordinates":[-72.1273218692222,44.45562112918151]}},{"type":"Feature","properties":{"OBJECTID":928,"PSINUM":"XUL01","SWFACID":" ","SITENAME":" ","LOCCONF":"L","DATE_FIRST":"","DATE_LAST":"","ACRES":0,"STATUS":"CLOSED","WQMONITORING":"N","GASCOLLECTION":"N","TOWNNAME":"WINOOSKI","LATITUDE":44.4967157,"LONGITUDE":-73.17234995},"geometry":{"type":"Point","coordinates":[-73.17235137750583,44.496724698287174]}},{"type":"Feature","properties":{"OBJECTID":929,"PSINUM":"CAL01","SWFACID":" ","SITENAME":"CABOT TOWN","LOCCONF":"L","DATE_FIRST":"1953","DATE_LAST":"1968","ACRES":2,"STATUS":"CLOSED","WQMONITORING":"N","GASCOLLECTION":"N","TOWNNAME":"CABOT","LATITUDE":44.42227835,"LONGITUDE":-72.31538073},"geometry":{"type":"Point","coordinates":[-72.31538187676858,44.42228736160035]}},{"type":"Feature","properties":{"OBJECTID":930,"PSINUM":"SKL07","SWFACID":" ","SITENAME":" ","LOCCONF":"L","DATE_FIRST":"","DATE_LAST":"","ACRES":0,"STATUS":"CLOSED","WQMONITORING":"N","GASCOLLECTION":"N","TOWNNAME":"SHELBURNE","LATITUDE":44.38755064,"LONGITUDE":-73.22540366},"geometry":{"type":"Point","coordinates":[-73.22540510579519,44.38755961443308]}},{"type":"Feature","properties":{"OBJECTID":931,"PSINUM":"SKL01","SWFACID":" ","SITENAME":"HUBBARD, C.","LOCCONF":"L","DATE_FIRST":"1954","DATE_LAST":"1964","ACRES":4,"STATUS":"CLOSED","WQMONITORING":"N","GASCOLLECTION":"N","TOWNNAME":"SHELBURNE","LATITUDE":44.38143999,"LONGITUDE":-73.20818122},"geometry":{"type":"Point","coordinates":[-73.2081826575577,44.38144896798644]}},{"type":"Feature","properties":{"OBJECTID":932,"PSINUM":"RHL01","SWFACID":" ","SITENAME":"RICHMOND TOWN","LOCCONF":"L","DATE_FIRST":" ","DATE_LAST":"1979","ACRES":1.5,"STATUS":"CLOSED","WQMONITORING":"N","GASCOLLECTION":"N","TOWNNAME":"RICHMOND","LATITUDE":44.43005198,"LONGITUDE":-73.01679138},"geometry":{"type":"Point","coordinates":[-73.01679275901783,44.430060970968775]}},{"type":"Feature","properties":{"OBJECTID":933,"PSINUM":"RHL02","SWFACID":" ","SITENAME":"UNKNOWN","LOCCONF":"L","DATE_FIRST":" ","DATE_LAST":"U","ACRES":0.1,"STATUS":"CLOSED","WQMONITORING":"N","GASCOLLECTION":"N","TOWNNAME":"RICHMOND","LATITUDE":44.37422049,"LONGITUDE":-72.9467889},"geometry":{"type":"Point","coordinates":[-72.94679024455834,44.37422947354101]}},{"type":"Feature","properties":{"OBJECTID":934,"PSINUM":"HNL01","SWFACID":"CH280","SITENAME":"HINESBURG LANDFILL","LOCCONF":" ","DATE_FIRST":"1972","DATE_LAST":"U","ACRES":6,"STATUS":"CLOSED","WQMONITORING":"N","GASCOLLECTION":"N","TOWNNAME":"HINESBURG","LATITUDE":44.32309999,"LONGITUDE":-73.0767},"geometry":{"type":"Point","coordinates":[-73.07670138361688,44.323108965906364]}},{"type":"Feature","properties":{"OBJECTID":935,"PSINUM":"X8L01","SWFACID":" ","SITENAME":"WOODSTOCK TOWN","LOCCONF":"L","DATE_FIRST":"1972","DATE_LAST":"U","ACRES":4,"STATUS":"CLOSED","WQMONITORING":"N","GASCOLLECTION":"N","TOWNNAME":"WOODSTOCK","LATITUDE":43.59312537,"LONGITUDE":-72.52564957},"geometry":{"type":"Point","coordinates":[-72.52565072688883,43.59313422511593]}},{"type":"Feature","properties":{"OBJECTID":936,"PSINUM":"X8L02","SWFACID":" ","SITENAME":"BARR, E.","LOCCONF":"L","DATE_FIRST":"1978","DATE_LAST":"1978","ACRES":0,"STATUS":"CLOSED","WQMONITORING":"N","GASCOLLECTION":"N","TOWNNAME":"WOODSTOCK","LATITUDE":43.57118102,"LONGITUDE":-72.55676115},"geometry":{"type":"Point","coordinates":[-72.55676231781864,43.57118987678233]}},{"type":"Feature","properties":{"OBJECTID":937,"PSINUM":"X8L03","SWFACID":" ","SITENAME":"HAPPY VALLEY","LOCCONF":"L","DATE_FIRST":"1954","DATE_LAST":"1954","ACRES":0.34,"STATUS":"CLOSED","WQMONITORING":"N","GASCOLLECTION":"N","TOWNNAME":"WOODSTOCK","LATITUDE":43.61562529,"LONGITUDE":-72.48648208},"geometry":{"type":"Point","coordinates":[-72.48648322723577,43.61563415817305]}},{"type":"Feature","properties":{"OBJECTID":938,"PSINUM":"XBL04","SWFACID":" ","SITENAME":" ","LOCCONF":"L","DATE_FIRST":"","DATE_LAST":"","ACRES":0,"STATUS":"CLOSED","WQMONITORING":"N","GASCOLLECTION":"N","TOWNNAME":"WOODSTOCK","LATITUDE":43.64423601,"LONGITUDE":-72.52481686},"geometry":{"type":"Point","coordinates":[-72.5248180205618,43.644244873583595]}},{"type":"Feature","properties":{"OBJECTID":939,"PSINUM":"ROL01","SWFACID":"RU620","SITENAME":"RUTLAND CITY LANDFILL","LOCCONF":" ","DATE_FIRST":"1940","DATE_LAST":"1991","ACRES":12,"STATUS":"CLOSED","WQMONITORING":"Y","GASCOLLECTION":"N","TOWNNAME":"RUTLAND CITY","LATITUDE":43.61952547,"LONGITUDE":-72.95155146},"geometry":{"type":"Point","coordinates":[-72.95155275592764,43.61953432227695]}},{"type":"Feature","properties":{"OBJECTID":1002,"PSINUM":"RTL02","SWFACID":" ","SITENAME":"CARRIS REELS","LOCCONF":"L","DATE_FIRST":" ","DATE_LAST":"U","ACRES":0,"STATUS":"CLOSED","WQMONITORING":"N","GASCOLLECTION":"N","TOWNNAME":"RUTLAND","LATITUDE":43.60451251,"LONGITUDE":-73.01094045},"geometry":{"type":"Point","coordinates":[-73.0109417704696,43.604521349597974]}}]}
